;modelo;combustivel;preco;ano;km;cor;cambio;cidade;airbag motorista;freios ABS;airbag passageiro;ar-condicionado;direção elétrica;volante com regulagem de altura;travas elétricas;cd player com MP3;entrada USB;vidros elétricos dianteiros;limajuste de alturap. traseiro;desemb. traseiro;alarme;câmbio automático;ajuste de altura;distribuição eletrônica de frenagem,;controle de tração;retrovisores elétricos;piloto automático;Kit Multimídia;bancos de couro;limp. traseiro;longitude;latitude;cilindrada
0;Fiat Siena Fire 1.0 8V (Flex) 2010;Flex; 24.900,00;2009;169.000;Prata;0;Bragança Paulista;0;0;0;0;0;0;1;0;0;0;0;1;0;0;0;0;0;0;0;0;0;0;-46.54188;-22.952681;1000.0
1;Volkswagen Gol 1.0 VHT (Rock in Rio) 2012;Flex; 34.990,00;2011;251.847;Vermelho;0;Campinas;0;0;0;1;0;0;1;0;0;0;0;1;1;0;0;0;0;0;0;0;0;1;-47.06595;-22.905346;1000.0
2;Volkswagen Gol 1.6 VHT City (Flex) 4p 2014;Flex; 38.900,00;2013;180.340;Branco;0;São Pedro;0;0;0;0;0;0;0;0;0;0;0;0;0;0;0;0;0;0;0;0;0;0;-47.909579;-22.548256;1600.0
3;Citroën C3 Picasso GLX BVA 1.6 16V (Flex) (Aut) 2012;Flex; 37.900,00;2011;81.000;Prata;1;Jaraguá do Sul;0;1;1;1;1;1;1;1;0;0;0;1;1;1;1;0;0;0;0;0;0;1;-49.07125;-26.485083;1600.0
4;Peugeot 307 Hatch. Presence 1.6 16V (flex) 2011;Flex; 29.900,00;2010;109.800;Prata;0;Estância Velha;1;0;1;1;0;0;1;0;0;1;0;1;0;0;0;0;0;1;0;0;0;1;-51.184339;-29.65354;1600.0
5;Peugeot 307 Sedan Griffe 2.0 16V (aut) 2008;Flex; 24.900,00;2007;96.000;Prata;1;São Paulo;1;1;1;1;0;1;1;1;1;1;0;1;1;1;1;0;0;1;1;1;1;0;-46.63952;-23.532905;2000.0
6;Nissan Sentra 2.0 16V (flex) 2013;Flex; 37.900,00;2012;139.439;Preto;1;Brasília;1;1;1;1;0;0;1;0;0;0;0;1;1;1;0;0;0;1;0;0;0;0;-47.929657;-15.779522;2000.0
7;Nissan March 1.0 12V S (Flex) 2015;Flex; 36.900,00;2014;123.000;Prata;0;Belo Horizonte;1;1;1;1;0;0;0;0;0;0;0;0;1;0;0;0;0;0;0;0;0;1;-43.926572;-19.910183;1000.0
8;Volkswagen Voyage 1.6 MSI (Flex) 2021;Flex; 56.440,00;2020;54.427;Cinza;0;Feira de Santana;0;1;1;1;0;1;1;0;1;1;0;1;0;0;0;0;0;0;0;0;0;0;-38.966293;-12.266429;1600.0
9;Volkswagen Fox 1.0 VHT (Flex) 4p 2012;Flex; 36.900,00;2011;116.000;Prata;0;São José;1;0;0;1;0;0;1;0;0;0;0;0;1;0;0;0;0;0;0;0;0;0;-48.636607;-27.613577;1000.0
10;Volkswagen Up! 1.0 12v E-Flex take up! 2p 2016;Flex; 36.990,00;2015;104.924;Branco;0;Lins;0;0;0;0;0;0;0;0;0;0;0;0;0;0;0;0;0;0;0;0;0;0;-49.752555;-21.67182;1000.0
11;Volkswagen T-Cross 1.0 200 TSI Comfortline (Aut) 2022;Flex; 119.990,00;2022;32.868;Preto;1;São Carlos;1;1;1;1;1;0;0;0;1;0;0;1;1;1;1;0;0;1;0;1;0;0;-47.885971;-22.017395;1000.0
12;Fiat Mobi Evo Easy 1.0 (Flex) 2018;Flex; 37.900,00;2017;100.000;Branco;0;Mogi Mirim;1;1;1;0;0;0;0;0;1;0;0;0;0;0;0;0;0;0;0;0;0;0;-46.950514;-22.431878;1000.0
13;Volkswagen CrossFox 1.6 (Flex) 2009;Flex; 35.000,00;2009;215.000;Prata;0;Sinop;0;0;0;0;0;0;0;0;0;0;0;0;0;0;0;0;0;0;0;0;0;0;-55.509062;-11.86043;1600.0
14;Volkswagen CrossFox 1.6 (Flex) 2008;Flex; 32.990,00;2008;100.051;Cinza;0;Belo Horizonte;0;0;0;1;0;1;1;1;1;1;0;0;1;0;0;0;0;1;0;0;0;0;-43.926572;-19.910183;1600.0
15;Renault Symbol 1.6 16V Privilège (flex) 2013;Flex; 29.900,00;2012;170.000;Preto;0;Blumenau;1;1;1;1;0;1;1;1;0;1;0;1;1;0;1;0;0;1;0;0;0;0;-49.070904;-26.915501;1600.0
16;Renault Clio Expression 1.0 16V (Flex) 2014;Flex; 30.900,00;2013;109.777;Branco;0;Araucária;0;0;0;1;0;0;0;0;0;1;0;1;0;0;0;0;0;0;0;0;0;1;-49.404748;-25.585939;1000.0
17;Fiat Punto Attractive 1.4 (Flex) 2011;Flex; 34.900,00;2010;164.497;Vermelho;0;Belo Horizonte;0;0;0;1;0;0;0;0;0;0;0;0;1;0;0;0;0;1;0;0;0;1;-43.926572;-19.910183;1400.0
18;Fiat Punto Attractive 1.4 (Flex) 2012;Flex; 34.900,00;2011;91.262;Prata;0;Aparecida de Goiânia;0;1;0;1;0;1;1;0;1;1;0;1;0;0;1;0;1;1;0;0;0;1;-49.246856;-16.819804;1400.0
19;Citroën C3 Tendance 1.5 8V (Flex) 2014;Flex; 38.900,00;2013;134.000;Branco;0;Ituiutaba;1;1;1;1;0;1;1;1;1;1;0;1;0;0;0;0;0;1;0;0;0;1;-49.463945;-18.977191;1500.0
20;Fiat Uno Sporting 1.4 8V (Flex) 4p 2012;Flex; 29.977,00;2011;130.254;Vermelho;0;Niterói;1;0;1;1;0;0;1;0;0;1;0;1;0;0;0;0;0;0;0;0;0;1;-43.103367;-22.88321;1400.0
21;Volkswagen Gol 1.6 (Flex) 2013;Flex; 33.900,00;2012;75.000;Prata;0;Rio de Janeiro;1;1;1;1;0;0;1;0;0;1;0;1;1;0;1;0;0;0;0;0;0;1;-43.200295;-22.912897;1600.0
22;Renault Sandero Expression 1.0 16V (Flex) 2015;Flex; 35.900,00;2015;135.000;Cinza;0;Curitiba;0;0;0;0;0;0;0;0;0;0;0;0;0;0;0;0;0;0;0;0;0;0;-49.264622;-25.419547;1000.0
23;Toyota Etios Hatch Etios XLS 1.5 (Flex) 2014;Flex; 37.900,00;2013;118.535;Prata;0;Manaus;1;0;1;1;0;1;1;1;1;1;0;1;0;0;0;0;0;1;0;0;0;1;-60.02123;-3.118662;1500.0
24;Ford Fiesta Hatch SE 1.0 RoCam (Flex) 2014;Flex; 32.900,00;2013;123.000;Preto;0;Jaú;0;0;0;1;0;0;1;0;0;1;0;1;1;0;0;0;0;0;0;0;0;1;-48.559193;-22.293585;1000.0
25;Ford New Fiesta Hatch New Fiesta S 1.5 16V 2014;Flex; 38.700,00;2014;98.999;Preto;0;Curitiba;1;1;1;1;0;0;0;0;0;0;0;0;1;0;0;0;0;0;0;0;0;0;-49.264622;-25.419547;1500.0
26;Ford Focus Hatch GL 1.6 16V (Flex) 2013;Flex; 37.900,00;2012;116.000;Prata;0;Belo Horizonte;1;0;1;1;0;1;1;1;1;1;0;1;1;0;1;0;0;1;0;0;0;1;-43.926572;-19.910183;1600.0
27;Chevrolet Meriva Premium 1.8 (Flex) 2008;Flex; 29.700,00;2008;159.511;Prata;1;Curitiba;1;1;1;1;0;0;1;0;0;0;0;1;1;1;0;0;0;0;0;0;0;1;-49.264622;-25.419547;1800.0
28;Fiat Punto Attractive 1.4 (Flex) 2012;Flex; 29.990,00;2012;142.000;Bege;0;Escada;0;0;0;0;0;0;0;0;0;1;0;1;0;0;0;0;0;0;0;0;0;1;-35.224082;-8.356717;1400.0
29;Volkswagen Saveiro 1.6 (Flex) 2012;Flex; 38.900,00;2012;141.200;Preto;0;Suzano;0;0;0;1;0;0;1;0;0;1;0;0;1;0;0;0;0;0;0;0;0;0;-46.311181;-23.544828;1600.0
30;Chevrolet Classic LS 1.0 VHCE (Flex) 2016;Flex; 36.900,00;2016;120.000;Preto;0;Campo Grande;1;1;1;1;0;0;0;0;0;0;0;1;0;0;0;0;0;0;0;0;0;0;-36.792608;-9.955423;1000.0
31;Fiat Uno Way 1.4 8V (Flex) 4p 2013;Flex; 35.000,00;2012;109.001;Branco;0;Cascavel;0;0;0;0;0;0;0;0;0;0;0;0;0;0;0;0;0;0;0;0;0;0;-38.241178;-4.129666;1400.0
32;Fiat Siena EL 1.4 8V (Flex) 2014;Flex; 36.590,00;2013;163.456;Vermelho;0;Santa Inês;1;1;1;1;0;0;0;0;0;0;0;1;0;0;0;0;0;0;0;0;0;0;-45.37745;-3.651118;1400.0
33;Fiat Palio Fire 1.0 8V (Flex) 4p 2013;Flex; 29.900,00;2012;124.012;Prata;0;Caxias do Sul;1;1;0;1;0;0;1;0;1;1;0;0;1;0;0;0;0;0;0;0;0;1;-51.179161;-29.162905;1000.0
34;Peugeot 307 Hatch. Presence Pack 1.6 16V (flex) 2011;Flex; 26.900,00;2010;153.000;Prata;0;Cocal do Sul;1;0;1;1;0;1;1;1;1;1;0;1;0;0;1;0;0;1;0;0;0;1;-49.333536;-28.598569;1600.0
35;Fiat Palio Attractive 1.4 8V (Flex) 2013;Flex; 37.990,00;2013;78.000;Branco;0;Campinas;1;1;1;0;0;1;1;0;0;1;0;1;0;0;0;0;0;0;0;0;0;1;-47.06595;-22.905346;1400.0
36;Chevrolet Meriva SS 1.8 (Flex) 2008;Flex; 29.900,00;2007;167.546;Cinza;0;São Paulo;0;0;0;1;0;0;1;0;0;1;0;1;1;0;1;0;0;1;0;0;0;1;-46.63952;-23.532905;1800.0
37;Fiat Grand Siena Tetrafuel 1.4 8V 2013;GNV; 34.900,00;2013;110;Branco;0;Porto Alegre;1;1;0;1;0;0;1;0;0;1;0;1;0;0;1;0;0;0;0;0;0;0;-51.206533;-30.031771;1400.0
38;Chevrolet Classic LS VHC E 1.0 (Flex) 2011;Flex; 26.800,00;2011;132.210;Branco;0;Campo Grande;0;0;0;0;0;0;0;0;0;0;0;1;0;0;0;0;0;0;0;0;0;0;-36.792608;-9.955423;1000.0
39;Chevrolet Cobalt LT 1.4 8V (Flex) 2012;Flex; 36.990,00;2012;179.000;Branco;0;Rio Claro;0;1;1;1;0;1;1;0;1;1;0;1;0;0;0;0;0;1;0;1;0;0;-44.141874;-22.720001;1400.0
40;Nissan Kicks 1.6 Sense 2022;Flex; 100.970,00;2022;38.278;Prata;1;Feira de Santana;0;1;1;1;0;1;1;0;1;1;0;1;1;1;0;0;0;0;0;0;0;0;-38.966293;-12.266429;1600.0
41;Citroën C3 Picasso Exclusive 1.6 16V (Flex) 2013;Flex; 38.900,00;2013;74.000;Branco;0;Ponta Grossa;0;0;0;1;0;0;1;0;0;0;0;1;0;0;0;0;0;0;0;0;0;1;-50.166787;-25.091622;1600.0
42;Fiat Siena EL 1.0 8V (Flex) 2011;Flex; 29.900,00;2010;99.999;Prata;0;Viamão;0;0;0;1;0;0;0;0;0;0;0;1;0;0;0;0;0;0;0;0;0;0;-51.019435;-30.081899;1000.0
43;Renault Logan Expression 1.0 16V (flex) 2015;Flex; 36.800,00;2014;114.622;Prata;0;São Bernardo do Campo;0;1;1;1;0;0;1;0;0;0;0;1;1;0;1;0;0;0;0;1;0;0;-46.564617;-23.691412;1000.0
44;Volkswagen CrossFox 1.6 (Flex) 2011;Flex; 38.900,00;2010;92.956;Prata;0;Curitiba;0;0;0;0;0;0;0;0;0;0;0;0;0;0;0;0;0;0;0;0;0;0;-49.264622;-25.419547;1600.0
45;Volkswagen Gol 1.0 8V (G4)(Flex)2p 2013;Flex; 25.900,00;2012;84.000;Preto;0;Campo Grande;0;0;0;0;0;0;0;0;0;0;0;0;0;0;0;0;0;0;0;0;0;0;-37.310572;-5.8536;1000.0
46;Volkswagen Gol 1.0 2022;Flex; 52.990,00;2021;67.854;Cinza;0;Mossoró;1;1;1;0;1;0;0;0;0;0;0;0;0;0;0;0;0;0;0;0;0;0;-37.347446;-5.183737;1000.0
47;Mitsubishi Pajero Sport 2.4 DI-D HPE 4WD 2022;Álcool; 284.990,00;2021;39.359;Cinza;1;São José;0;1;0;1;0;1;1;0;0;0;0;1;1;1;0;0;1;0;0;0;1;1;-48.636607;-27.613577;2400.0
48;Chevrolet Astra Sedan Advantage 2.0 (Flex) 2007;Flex; 26.500,00;2006;176.785;Vermelho;0;Aparecida de Goiânia;0;0;0;1;0;1;1;0;0;1;0;1;0;0;0;0;0;1;0;0;0;0;-49.246856;-16.819804;2000.0
49;Volkswagen Parati 1.6 G4 (Flex) 2013;Flex; 34.900,00;2012;125.000;Preto;0;Gravataí;0;0;0;0;0;0;0;0;0;0;0;1;0;0;0;0;0;0;0;0;0;1;-50.986891;-29.941319;1600.0
50;Fiat Palio Fire 1.0 8V (Flex) 4p 2015;Flex; 32.990,00;2014;101.350;Preto;0;São Paulo;0;0;0;1;0;0;1;0;0;1;0;0;0;0;0;0;0;0;0;0;0;0;-46.63952;-23.532905;1000.0
51;Volkswagen Fox Prime 1.6 8V (Flex) 2011;Flex; 35.900,00;2010;72.000;Cinza;0;São Paulo;1;1;1;0;0;1;0;0;0;0;0;1;0;0;1;0;0;0;0;0;0;1;-46.63952;-23.532905;1600.0
52;Volkswagen SpaceFox Comfortline 1.6 8V (Flex) 2008;Flex; 27.890,00;2008;164.458;Prata;0;São Paulo;0;0;0;1;0;0;1;0;0;1;0;1;1;0;1;0;0;1;0;0;0;1;-46.63952;-23.532905;1600.0
53;Volkswagen Gol 1.0 Ecomotion(G4) (Flex) 4p 2014;Flex; 35.900,00;2013;120.000;Prata;0;São José dos Campos;0;0;0;1;0;0;0;0;1;1;0;0;0;0;0;0;0;0;0;0;0;0;-45.884115;-23.189554;1000.0
54;Ford Fiesta Sedan S 1.0 Rocam (Flex) 2014;Flex; 33.900,00;2014;25.000;Prata;0;Duque de Caxias;0;0;0;0;0;0;1;0;0;1;0;1;1;0;0;0;0;0;0;0;0;0;-43.304895;-22.785801;1000.0
55;Fiat Palio Fire 1.0 8V (Flex) 4p 2013;Flex; 26.999,00;2013;110.000;Preto;0;Curitiba;0;0;0;0;0;0;0;0;0;0;0;1;1;0;0;0;0;0;0;0;0;1;-49.264622;-25.419547;1000.0
56;Volkswagen Gol 1.6 (G5) (Flex) 2012;Flex; 34.900,00;2011;124.078;Branco;0;Jaraguá;0;0;0;0;0;0;0;0;0;0;0;0;0;0;0;0;0;0;0;0;0;0;-49.334428;-15.752948;1600.0
57;Fiat Uno Vivace 1.0 8V (Flex) 4p 2013;Flex; 32.990,00;2012;175.200;Prata;0;Franca;0;0;0;1;0;0;1;0;0;1;0;1;1;0;0;0;0;0;0;0;0;1;-47.403861;-20.53523;1000.0
58;Fiat Idea Adventure 1.8 16V E.TorQ (Flex) 2012;Flex; 36.900,00;2011;145.000;Prata;0;Belo Horizonte;1;1;1;1;0;0;1;0;0;1;0;1;0;0;1;0;0;1;0;0;0;1;-43.926572;-19.910183;1800.0
59;Volkswagen Gol 1.6 VHT City (Flex) 4p 2014;Flex; 38.900,00;2014;83.413;Preto;0;São Paulo;1;1;0;1;0;0;1;0;0;1;0;0;0;0;0;0;0;0;0;0;0;1;-46.63952;-23.532905;1600.0
60;Ford Ka Hatch SE Plus 1.0 (Flex) 2015;Flex; 38.000,00;2014;137.000;Prata;0;São José do Rio Preto;1;1;1;1;0;1;1;0;1;1;0;1;0;0;0;0;0;0;0;0;0;1;-49.375767;-20.811289;1000.0
61;Fiat Mobi 1.0 Like 2021;Flex; 52.010,00;2021;58.855;Branco;0;João Pessoa;0;1;1;1;0;1;1;0;0;0;0;0;0;0;0;0;0;0;0;0;0;0;-34.864121;-7.11509;1000.0
62;Citroën C4 GLX 1.6 (flex) 2012;Flex; 29.800,00;2011;175.000;Prata;0;Palhoça;1;1;1;1;0;0;1;0;0;1;0;1;1;0;0;0;0;1;0;0;0;1;-48.669661;-27.645518;1600.0
63;Citroën Xsara Picasso GLX 1.6 16V (flex) 2012;Flex; 27.000,00;2011;169.488;Prata;0;Vila Velha;0;0;0;0;0;0;0;0;0;0;0;0;0;0;0;0;0;0;0;0;0;0;-40.287458;-20.341705;1600.0
64;Volkswagen Gol Rallye 1.6 VHT (G5) (Flex) 2012;Flex; 36.900,00;2012;135.854;Vermelho;0;Piraquara;1;0;1;1;0;0;0;1;0;0;0;1;0;0;0;0;0;0;0;0;0;1;-49.062411;-25.442171;1600.0
65;Chevrolet Classic LS 1.0 VHCE (Flex) 2015;Flex; 34.990,00;2014;300;Preto;0;Dourados;0;0;0;1;0;0;0;0;0;0;0;0;0;0;0;0;0;0;0;0;0;0;-54.812043;-22.223099;1000.0
66;Volkswagen Fox 1.0 8V (Flex) 4p 2011;Flex; 33.900,00;2010;124.000;Preto;0;Içara;0;0;0;0;0;0;0;0;0;0;0;1;0;0;1;0;0;0;0;0;0;1;-49.308654;-28.713206;1000.0
67;Chevrolet Classic LS VHC E 1.0 (Flex) 2012;Flex; 28.900,00;2011;234.977;Preto;0;Brasília;0;0;0;1;0;0;0;0;0;0;0;0;0;0;0;0;0;0;0;0;0;0;-47.929657;-15.779522;1000.0
68;Nissan Livina S 1.8 16V (flex) (aut) 2014;Flex; 38.900,00;2014;96.063;Verde;1;Osasco;1;0;1;1;0;1;1;0;0;1;0;1;0;1;0;0;0;0;0;0;0;1;-46.791555;-23.53239;1800.0
69;Fiat Siena Fire 1.0 8V (Flex) 2010;Flex; 23.990,00;2009;120.134;Branco;0;Lajeado;0;0;0;0;0;0;0;0;0;1;0;0;0;0;0;0;0;0;0;0;0;0;-51.964427;-29.459086;1000.0
70;Ford Fiesta Sedan 1.6 (Flex) 2011;Flex; 33.900,00;2010;168.050;Cinza;0;Cascavel;0;0;0;1;0;0;1;0;0;0;0;0;0;0;0;0;0;0;0;0;0;0;-38.241178;-4.129666;1600.0
71;Ford Fiesta Sedan 1.6 Rocam (Flex) 2013;Flex; 35.000,00;2012;98.000;Branco;0;Linhares;0;0;0;1;0;0;1;0;0;1;0;1;1;0;0;0;0;0;0;0;0;0;-40.064277;-19.394642;1600.0
72;Ford Fiesta Hatch S Rocam 1.0 (Flex) 2014;Flex; 32.090,00;2013;129.747;Preto;0;Praia Grande;0;0;0;1;0;0;1;0;0;1;0;1;1;0;0;0;0;0;0;0;0;1;-46.412057;-24.008378;1000.0
73;Volkswagen SpaceFox Route 1.6 8V (Flex) 2010;Flex; 31.900,00;2009;145.000;Preto;0;Pilar do Sul;0;0;0;1;0;0;1;1;1;1;0;1;1;0;1;0;0;1;0;0;0;1;-47.722151;-23.807716;1600.0
74;Renault Clio 1.0 16V (flex) 4p 2012;Flex; 23.900,00;2012;100.000;Branco;0;Porto Alegre;0;0;0;0;0;0;0;0;0;0;0;0;0;0;0;0;0;0;0;0;0;0;-51.206533;-30.031771;1000.0
75;Fiat Uno Vivace 1.0 8V (Flex) 4p 2012;Flex; 32.000,00;2011;96.000;Cinza;0;São Carlos;0;0;0;1;0;0;1;0;0;1;0;1;1;0;0;0;0;0;0;0;0;0;-53.003704;-27.079757;1000.0
76;Fiat Uno Way 1.0 8V (Flex) 4p 2012;Flex; 30.890,00;2011;105.321;Vermelho;0;Campinas;0;1;1;1;0;0;1;0;0;1;0;0;1;0;0;0;0;0;0;0;0;0;-47.06595;-22.905346;1000.0
77;Renault Sandero Privilege 1.6 16V (Flex)(aut) 2013;Flex; 33.490,00;2012;90.816;Vermelho;1;São Paulo;0;0;0;1;0;0;0;0;0;1;0;0;0;1;0;0;0;0;0;1;0;0;-46.63952;-23.532905;1600.0
78;Volkswagen Polo Hatch 1.6 VHT Total Flex 2014;Flex; 37.900,00;2013;49.369;Branco;0;Rio de Janeiro;1;1;1;1;0;1;1;1;1;1;0;1;1;0;1;0;0;1;0;0;0;1;-43.200295;-22.912897;1600.0
79;Fiat Palio Attractive 1.0 Evo (Flex) 2015;Flex; 37.900,00;2014;99.434;Branco;0;São José dos Campos;1;1;1;1;0;0;1;0;0;1;0;1;0;0;0;0;0;0;0;0;0;1;-45.884115;-23.189554;1000.0
80;Fiat Siena EL 1.0 8V (Flex) 2015;Flex; 35.900,00;2014;110.000;Prata;0;Campo Grande;1;1;1;1;0;0;1;1;0;1;0;0;0;0;0;0;0;0;0;0;0;0;-37.310572;-5.8536;1000.0
81;Renault Logan Expression 1.6 8V Hi-Torque (flex) 2011;Flex; 27.490,00;2011;147.000;Preto;0;Campinas;0;0;0;1;0;0;1;0;0;1;0;1;0;0;0;0;0;0;0;0;0;0;-47.06595;-22.905346;1600.0
82;Ford EcoSport Ecosport XLT 1.6 (Flex) 2008;Flex; 33.900,00;2008;204.973;Prata;0;Jataí;1;0;1;1;0;1;1;1;0;1;0;1;1;0;1;0;0;1;0;1;1;1;-51.720424;-17.878383;1600.0
83;Fiat Siena EL 1.0 8V (Flex) 2015;Flex; 35.900,00;2014;110.000;Prata;0;Campo Grande;1;1;1;1;0;0;1;1;0;1;0;0;0;0;0;0;0;0;0;0;0;0;-36.792608;-9.955423;1000.0
84;Ford Ka Sedan SE Plus 1.5 16v (Flex) 2015;Flex; 38.900,00;2015;67.587;Prata;0;Nova Iguaçu;1;0;1;1;1;0;1;0;0;1;0;1;0;0;0;0;0;0;0;0;0;0;-43.460325;-22.755635;1500.0
85;Volkswagen Up! 1.0 12v E-Flex take up! 4p 2015;Flex; 38.990,00;2014;38.000;Branco;0;Fortaleza;0;0;0;0;0;0;0;0;0;0;0;0;0;0;0;0;0;0;0;0;0;0;-38.542298;-3.716638;1000.0
86;Renault Sandero Expression 1.0 16V (flex) 2014;Flex; 29.900,00;2013;61.000;Prata;0;Nova Iguaçu;1;0;1;1;0;0;1;0;0;0;0;1;0;0;1;0;0;0;0;0;0;1;-43.460325;-22.755635;1000.0
87;Renault Sandero Expression 1.6 8V (flex) 2012;Flex; 29.800,00;2012;221.568;Prata;0;São Bernardo do Campo;0;0;0;1;0;0;1;0;0;1;0;1;1;0;0;0;0;0;0;0;0;1;-46.564617;-23.691412;1600.0
88;Fiat Uno Way 1.0 8V (Flex) 4p 2011;Flex; 32.000,00;2011;81.000;Prata;0;Fortaleza;0;0;0;1;0;0;1;0;0;0;0;0;1;0;0;0;0;0;0;0;0;1;-38.542298;-3.716638;1000.0
89;Chevrolet Cobalt LT 1.4 8V (Flex) 2013;Flex; 38.890,00;2012;106.000;Preto;0;Osasco;1;1;1;1;0;0;1;0;1;1;0;0;0;0;0;0;0;0;0;1;0;0;-46.791555;-23.53239;1400.0
90;Volkswagen Gol 1.0 8V (G4)(Flex)4p 2014;Flex; 33.099,00;2014;99.628;Branco;0;São Paulo;1;1;0;0;0;0;0;0;1;0;0;0;0;0;0;0;0;0;0;0;0;0;-46.63952;-23.532905;1000.0
91;Ford Fiesta Sedan 1.6 Rocam (Flex) 2013;Flex; 31.990,00;2013;67.335;Preto;0;Recife;1;0;1;1;0;0;1;0;0;0;0;0;1;0;0;0;0;0;0;0;0;0;-34.877065;-8.046658;1600.0
92;Fiat Toro 1.3 T270 Freedom (Aut) 2022;Flex; 127.800,00;2021;25.792;Prata;1;Guarapuava;1;1;1;1;1;1;1;0;1;1;0;1;1;1;1;0;0;1;0;1;0;0;-51.462317;-25.390237;1300.0
93;Fiat 500 Sport 1.4 16V (Dualogic) 2010;Flex; 38.900,00;2009;84.000;Amarelo;1;Florianópolis;0;0;0;0;0;0;0;0;0;0;0;0;0;1;0;0;0;0;0;0;0;0;-48.547696;-27.594486;1400.0
94;Volkswagen Fox Plus 1.6 8V (Flex) 2008;Flex; 27.900,00;2007;100.269;Preto;1;São Paulo;1;1;0;1;0;0;1;0;0;1;0;0;1;1;0;0;0;0;0;0;0;0;-46.63952;-23.532905;1600.0
95;Volkswagen Voyage 1.0 TEC City (Flex) 2014;Flex; 38.990,00;2013;128.000;Branco;0;Santa Cruz;1;1;1;1;0;1;1;1;1;1;0;1;1;0;0;0;0;0;0;0;0;0;-36.019297;-6.224752;1000.0
96;Volkswagen Gol 1.0 (G5) (Flex) 2012;Flex; 33.900,00;2011;N/D;Branco;0;Dois Irmãos;0;0;0;1;0;0;1;0;0;1;0;1;1;0;0;0;0;0;0;0;0;1;-51.089776;-29.58356;1000.0
97;Fiat Palio Attractive 1.0 Evo (Flex) 2015;Flex; 36.900,00;2015;104.000;Branco;0;Recife;1;1;1;1;0;0;1;0;0;1;0;1;0;0;0;0;0;0;0;0;0;1;-34.877065;-8.046658;1000.0
98;Volkswagen SpaceFox Comfortline 1.6 8V (Flex) 2007;Flex; 29.890,00;2006;135.000;Cinza;0;São Paulo;0;0;0;1;0;0;1;1;0;1;0;1;1;0;1;0;0;1;0;0;0;1;-46.63952;-23.532905;1600.0
99;Chevrolet Meriva Maxx 1.8 (Flex) 2008;Flex; 29.900,00;2008;178.052;Cinza;0;Santo André;0;0;0;1;0;1;1;0;0;1;0;1;1;0;0;0;0;1;0;0;0;1;-36.621339;-7.220157;1800.0
100;Peugeot 307 Hatch. Presence 1.6 16V (flex) 2011;Flex; 28.900,00;2011;128.692;Vermelho;0;Porto Alegre;1;0;1;1;0;0;1;0;0;1;0;0;1;0;0;0;0;1;0;0;0;1;-51.206533;-30.031771;1600.0
101;Peugeot 207 Hatch Active 1.4 (Flex) 2014;Flex; 28.890,00;2014;91.300;Branco;0;Curitiba;1;1;1;1;0;0;1;0;0;1;0;0;1;0;0;0;0;0;0;0;0;0;-49.264622;-25.419547;1400.0
102;Ford New Fiesta Sedan SE 1.6 (Flex) 2011;Flex; 35.900,00;2011;60.000;Preto;0;São Paulo;1;0;1;1;0;1;1;0;0;0;0;1;1;0;1;0;0;1;0;0;0;0;-46.63952;-23.532905;1600.0
103;Ford Fiesta Hatch S Plus 1.0 RoCam (Flex) 2014;Flex; 33.800,00;2014;117.159;Prata;0;Curitiba;0;0;0;1;0;0;1;0;0;0;0;1;1;0;0;0;0;0;0;0;0;1;-49.264622;-25.419547;1000.0
104;Fiat Palio Essence 1.6 16V (Flex) 2014;Flex; 35.990,00;2013;105.084;Preto;1;Belo Horizonte;1;0;1;1;1;1;1;1;0;1;0;1;1;1;0;0;0;1;0;0;1;1;-43.926572;-19.910183;1600.0
105;Fiat Punto Attractive 1.4 (Flex) 2012;Flex; 34.900,00;2011;97.000;Vermelho;0;Mogi Guaçu;0;0;0;1;0;1;1;0;1;1;0;1;1;0;1;0;0;1;0;0;0;0;-46.9428;-22.367453;1400.0
106;Ford EcoSport Ecosport XLT 1.6 (Flex) 2008;Flex; 31.900,00;2007;137.782;Preto;0;São Bernardo do Campo;1;0;0;1;0;1;1;0;0;1;0;1;1;0;1;0;0;1;0;0;1;1;-46.564617;-23.691412;1600.0
107;Chevrolet Corsa Hatch Maxx 1.4 (Flex) 2010;Flex; 29.900,00;2010;119.650;Prata;0;São Paulo;0;0;0;0;0;0;0;0;0;0;0;0;0;0;0;0;0;0;0;0;0;0;-46.63952;-23.532905;1400.0
108;Citroën C3 Exclusive Solaris 1.6 16V (flex) (aut) 2012;Flex; 33.900,00;2012;54.000;Branco;1;Foz do Iguaçu;0;0;0;0;0;0;0;0;0;0;0;0;0;1;0;0;0;0;0;0;0;0;-54.582689;-25.542748;1600.0
109;Chevrolet Agile LTZ 1.4 8V (Flex) 2011;Flex; 32.900,00;2011;138.109;Prata;0;São Roque;1;0;0;1;0;0;1;0;0;1;0;0;1;0;0;0;0;0;0;0;0;1;-47.13567;-23.522598;1400.0
110;Renault Kwid 1.0 Zen 2022;Flex; 53.270,00;2021;38.442;Branco;0;Palmas;1;1;1;1;1;1;1;1;1;1;0;1;0;0;0;0;0;0;0;0;0;1;-51.988812;-26.483868;1000.0
111;Nissan Livina S 1.6 16V (flex) 2012;Flex; 27.990,00;2011;206.874;Preto;0;Içara;1;0;1;1;0;0;1;0;0;1;0;1;1;0;0;0;0;0;1;0;1;1;-49.308654;-28.713206;1600.0
112;Ford Fiesta Sedan 1.6 (Flex) 2011;Flex; 29.990,00;2010;98.989;Preto;0;Cuiabá;0;0;0;1;0;0;1;0;0;1;0;1;0;0;0;0;0;0;0;0;0;0;-56.097397;-15.600979;1600.0
113;Chevrolet Vectra Elegance 2.0 (Flex) 2007;Flex; 33.900,00;2006;135.708;Prata;0;Curitiba;0;0;0;1;0;0;0;0;0;1;0;0;1;0;0;0;0;0;0;0;1;0;-49.264622;-25.419547;2000.0
114;Fiat Strada Fire 1.4 (Flex) 2008;Flex; 28.900,00;2008;300;Branco;0;Alvorada;0;0;0;0;0;0;0;0;0;0;0;0;0;0;0;0;0;0;0;0;0;0;-49.124926;-12.478465;1400.0
115;Chevrolet Classic LS VHC E 1.0 (Flex) 2014;Flex; 28.900,00;2013;94.000;Prata;0;São José do Rio Preto;0;0;0;0;0;0;0;0;0;0;0;1;0;0;0;0;0;0;0;0;0;0;-49.375767;-20.811289;1000.0
116;Volkswagen Saveiro 1.6 G4 (Flex) 2009;Flex; 34.900,00;2008;300;Branco;0;Almirante Tamandaré;0;0;0;0;0;0;0;0;0;0;0;0;0;0;0;0;0;0;0;0;0;0;-49.303733;-25.318819;1600.0
117;Chevrolet Agile LTZ 1.4 8V (Flex) 2011;Flex; 32.900,00;2010;109.000;Vermelho;0;Jundiaí;0;0;0;1;0;1;1;1;1;1;0;1;1;0;1;0;0;1;1;0;0;1;-46.897358;-23.185218;1400.0
118;Fiat Palio Attractive 1.4 8V (Flex) 2012;Flex; 34.990,00;2012;103.295;Cinza;0;Campinas;0;0;0;1;0;0;0;0;0;0;0;0;0;0;0;0;0;0;0;0;0;0;-47.06595;-22.905346;1400.0
119;Fiat Siena Fire 1.0 8V (Flex) 2008;Flex; 24.900,00;2007;158.680;Preto;0;Bauru;0;0;0;0;0;0;1;0;0;1;0;1;0;0;0;0;0;0;0;0;0;0;-49.087142;-22.324569;1000.0
120;Hyundai HB20 1.0 Evolution 2022;Flex; 71.080,00;2022;47.183;Prata;0;Petrolina;0;1;1;1;1;1;0;0;1;1;0;1;1;0;0;0;1;0;0;0;0;1;-40.502731;-9.388662;1000.0
121;Ford Fiesta Sedan 1.6 Rocam (Flex) 2013;Flex; 35.800,00;2013;124.000;Prata;0;Votuporanga;0;0;0;1;0;0;1;0;0;1;0;1;0;0;0;0;0;0;0;0;0;0;-49.978112;-20.423659;1600.0
122;Nissan Versa 1.6 16V SV 2013;Flex; 38.900,00;2012;88.000;Prata;0;Fortaleza;0;0;0;0;0;0;1;0;0;1;0;1;0;0;0;0;0;1;1;0;0;0;-38.542298;-3.716638;1600.0
123;Nissan March 1.6 16V SV (Flex) 2014;Flex; 38.990,00;2013;98.000;Prata;0;Campo Grande;1;1;1;1;1;0;1;1;0;0;0;1;0;0;0;0;0;0;0;0;0;1;-54.629463;-20.448589;1600.0
124;Citroën Xsara Picasso GLX 1.6 16V (flex) 2012;Flex; 26.990,00;2011;160.000;Preto;0;Canoas;0;0;0;1;0;0;1;0;0;0;0;0;0;0;0;0;0;0;0;0;0;0;-51.185681;-29.912758;1600.0
125;Volkswagen T-Cross 1.4 250 TSI Highline (Aut) 2021;Flex; 120.140,00;2021;44.063;Cinza;1;São José;0;0;0;1;1;0;0;0;0;0;0;1;1;1;0;0;1;1;0;0;1;1;-48.636607;-27.613577;1400.0
126;Renault Sandero Expression 1.0 16V (Flex) 2016;Flex; 38.900,00;2015;78.000;Branco;0;São José dos Campos;1;1;1;1;0;1;1;1;1;1;0;1;1;0;0;0;0;0;0;1;0;1;-45.884115;-23.189554;1000.0
127;Renault Sandero Privilege 1.6 16V (Flex)(aut) 2012;Flex; 32.900,00;2012;99.000;Branco;1;Campos dos Goytacazes;1;1;1;1;0;1;1;1;1;1;0;1;1;1;1;0;0;1;0;0;0;1;-41.318055;-21.762171;1600.0
128;Volkswagen Parati Track Field 1.8 G4 (Flex) 2007;Flex; 32.990,00;2006;155.000;Prata;0;Curitiba;0;0;0;1;1;0;1;0;0;0;0;1;1;0;0;0;0;0;0;0;0;1;-49.264622;-25.419547;1800.0
129;Renault Sandero Stepway 1.6 16V (Flex) 2010;Flex; 33.900,00;2010;98.000;Preto;1;Araraquara;0;0;0;1;0;0;1;1;0;1;0;1;1;1;0;0;0;0;0;0;1;1;-48.178014;-21.784511;1600.0
130;Volkswagen Fox Plus 1.6 8V (Flex) 2009;Flex; 30.900,00;2008;159.000;Prata;0;Mogi das Cruzes;0;0;0;1;0;0;1;0;0;1;0;1;1;0;1;0;0;0;0;0;0;1;-46.18541;-23.52082;1600.0
131;Ford Fiesta Hatch 1.6 (Flex) 2011;Flex; 29.900,00;2010;139.000;Preto;0;Franca;0;0;0;1;0;0;1;0;0;1;0;1;0;0;0;0;0;0;0;0;0;1;-47.403861;-20.53523;1600.0
132;Fiat Uno Way 1.4 8V (Flex) 2p 2011;Flex; 32.900,00;2010;139.000;Azul;0;Sorocaba;0;0;0;0;0;1;1;0;0;1;0;1;0;0;0;0;0;0;0;0;0;1;-47.445073;-23.496886;1400.0
133;Citroën C4 GLX 2.0 (aut) (flex) 2011;Flex; 33.900,00;2010;100.000;Vermelho;1;Belo Horizonte;1;1;1;1;1;1;1;1;0;1;0;1;1;1;1;0;0;1;1;0;0;1;-43.926572;-19.910183;2000.0
134;Fiat Palio Fire 1.0 8V (Flex) 2p 2015;Flex; 29.900,00;2014;172.000;Branco;0;Curitiba;1;1;1;1;0;1;1;1;1;0;0;1;0;0;0;0;0;1;0;0;0;1;-49.264622;-25.419547;1000.0
135;Renault Sandero Authentique 1.0 16V (Flex) 2016;Flex; 38.900,00;2015;103.132;Branco;0;Curitiba;1;0;1;1;0;0;0;0;0;0;0;1;0;0;0;0;0;0;0;0;0;1;-49.264622;-25.419547;1000.0
136;Chevrolet Corsa Hatch Maxx 1.4 (Flex) 2012;Flex; 29.990,00;2012;173.499;Cinza;0;Belo Horizonte;0;0;0;1;1;0;1;1;0;1;0;1;1;0;0;0;0;0;0;0;0;1;-43.926572;-19.910183;1400.0
137;Ford EcoSport Ecosport XLT 1.6 (Flex) 2009;Flex; 34.000,00;2008;130.000;Preto;0;Rondonópolis;1;0;1;1;0;1;1;1;0;1;0;1;0;0;1;0;0;1;0;0;0;1;-54.637173;-16.467251;1600.0
138;Fiat Uno Way 1.4 8V (Flex) 4p 2012;Flex; 32.000,00;2011;179.449;Cinza;0;São Paulo;0;0;0;1;0;1;1;0;0;1;0;1;0;0;0;0;0;0;0;0;0;1;-46.63952;-23.532905;1400.0
139;Citroën C3 Exclusive 1.4 8V (flex) 2012;Flex; 26.990,00;2012;163.647;Preto;0;Belo Horizonte;1;1;1;1;1;1;1;1;1;1;0;1;1;0;0;0;0;0;0;0;1;1;-43.926572;-19.910183;1400.0
140;Chevrolet Celta LS 1.0 (Flex) 2p 2013;Flex; 22.900,00;2013;121.000;Prata;0;São Bernardo do Campo;1;1;1;1;0;0;1;0;1;1;0;0;0;0;1;0;0;1;0;0;0;1;-46.564617;-23.691412;1000.0
141;Ford EcoSport Ecosport Freestyle 1.6 (Flex) 2009;Flex; 36.900,00;2009;128.000;Dourado;0;Brasília;1;0;1;1;0;1;1;1;0;1;0;1;0;0;1;0;0;1;0;0;0;1;-47.929657;-15.779522;1600.0
142;Citroën C3 Exclusive 1.6 16V (Flex)(aut) 2011;Flex; 32.900,00;2010;114.300;Prata;1;Volta Redonda;1;0;1;1;1;1;1;0;1;1;0;0;1;1;1;0;0;1;0;0;1;1;-44.099555;-22.520212;1600.0
143;Fiat Grand Siena 1.4 Attractive 2021;Flex; 57.500,00;2021;45.002;Preto;0;São José dos Campos;1;1;1;1;1;0;1;0;0;1;0;1;1;0;0;0;0;0;0;0;0;0;-45.884115;-23.189554;1400.0
144;Peugeot 207 Hatch Active 1.4 (Flex) 2014;Flex; 27.900,00;2013;104.121;Branco;0;Três Lagoas;1;1;1;1;0;1;1;0;0;1;0;1;1;0;1;0;0;0;0;0;0;1;-51.700731;-20.784853;1400.0
145;Chevrolet Celta LT 1.0 (Flex) 2012;Flex; 28.900,00;2011;166.000;Preto;0;Curitiba;0;0;0;1;0;0;1;0;0;0;0;1;0;0;0;0;0;0;0;0;0;1;-49.264622;-25.419547;1000.0
146;Fiat Palio Fire 1.0 8V (Flex) 4p 2013;Flex; 29.999,00;2013;109.000;Prata;0;Piracicaba;0;0;0;0;0;0;1;0;0;1;0;1;0;0;0;0;0;0;0;0;0;1;-47.647612;-22.733801;1000.0
147;Ford Focus Sedan GLX 2.0 16V (Flex) 2011;Flex; 35.900,00;2010;147.000;Prata;1;Curitiba;1;1;1;1;0;0;1;0;0;0;0;1;1;1;0;0;0;1;0;0;0;0;-49.264622;-25.419547;2000.0
148;Fiat Uno 1.0 Attractive 2021;Flex; 49.990,00;2021;71.878;Branco;0;Sorocaba;0;1;0;1;0;0;1;0;0;0;0;0;0;0;0;0;0;0;0;0;0;0;-47.445073;-23.496886;1000.0
149;Renault Sandero Stepway 1.6 16V Hi-Flex (aut) 2012;Flex; 38.900,00;2011;138.000;Vermelho;1;Mogi Guaçu;0;1;0;1;0;1;1;1;0;1;0;1;0;1;1;0;0;1;0;0;0;1;-46.9428;-22.367453;1600.0
150;Citroën C3 GLX 1.4 8V (flex) 2008;Flex; 23.900,00;2007;118.000;Preto;0;Mogi das Cruzes;0;0;0;1;1;1;1;0;0;1;0;1;1;0;1;0;0;1;0;0;0;1;-46.18541;-23.52082;1400.0
151;Volkswagen Fox 1.0 8V (Flex) 4p 2010;Flex; 29.900,00;2009;156.300;Prata;0;Palhoça;0;0;0;1;0;0;1;1;0;1;0;1;1;0;0;0;0;1;0;0;0;1;-48.669661;-27.645518;1000.0
152;Volkswagen Gol 1.0 TEC (Flex) 4p 2014;Flex; 38.000,00;2014;105.917;Branco;0;Lins;1;1;1;1;0;1;1;1;1;1;0;1;1;0;0;0;0;1;0;0;0;1;-49.752555;-21.67182;1000.0
153;Chevrolet Classic LS 1.0 VHCE (Flex) 2015;Flex; 35.900,00;2014;82.000;Prata;0;Jundiaí;1;1;1;1;0;0;1;0;0;1;0;1;1;0;0;0;0;0;0;0;0;0;-46.897358;-23.185218;1000.0
154;Volkswagen Gol 1.0 8V (G4)(Flex)4p 2012;Flex; 28.990,00;2012;120.000;Vermelho;0;Gravataí;0;0;0;1;0;0;0;0;0;0;0;0;0;0;0;0;0;0;0;0;0;0;-50.986891;-29.941319;1000.0
155;Ford Focus Hatch GL 1.6 16V (Flex) 2013;Flex; 37.900,00;2012;116.000;Prata;0;Belo Horizonte;1;0;1;1;0;1;1;1;1;1;0;1;1;0;1;0;0;1;0;0;0;1;-43.926572;-19.910183;1600.0
156;Ford Ka 1.0 (Flex) 2011;Flex; 20.990,00;2010;133.000;Vermelho;0;Avaré;0;0;0;0;0;0;1;0;0;0;0;0;1;0;0;0;0;0;0;0;0;0;-48.925052;-23.106732;1000.0
157;Fiat Palio ELX 1.0 (Flex) 4p 2011;Flex; 26.600,00;2010;111.000;Branco;0;São Carlos;0;0;0;0;0;0;1;0;0;1;0;1;1;0;0;0;0;0;0;1;0;1;-47.885971;-22.017395;1000.0
158;Volkswagen Gol 1.0 8V (G4)(Flex)4p 2014;Flex; 33.990,00;2013;192.000;Vermelho;0;Brasília;0;0;0;1;0;0;0;0;0;0;0;0;0;0;0;0;0;0;0;0;0;0;-47.929657;-15.779522;1000.0
159;Volkswagen Gol 1.0 8V (G4)(Flex)4p 2014;Flex; 33.499,00;2014;86.000;Preto;0;São Paulo;1;1;0;0;0;0;0;0;1;0;0;0;0;0;0;0;0;0;0;0;0;0;-46.63952;-23.532905;1000.0
160;CAOA Chery QQ Act 1.0 (Flex) 2019;Flex; 35.900,00;2018;40.846;Branco;0;Curitiba;1;1;1;1;0;0;1;1;1;1;0;1;1;0;0;0;0;1;0;0;0;1;-49.264622;-25.419547;1000.0
161;Renault Logan Expression 1.0 16V (flex) 2012;Flex; 27.800,00;2011;98.400;Prata;0;Belo Horizonte;0;0;0;1;0;0;1;1;1;1;0;1;0;0;0;0;0;0;0;1;0;0;-43.926572;-19.910183;1000.0
162;Fiat Uno Sporting 1.4 8V (Flex) 4p 2013;Flex; 36.900,00;2013;197.000;Preto;0;Santo André;1;1;0;1;0;0;1;0;1;1;0;1;1;0;0;0;0;0;0;0;0;1;-46.543154;-23.67373;1400.0
163;Chevrolet Vectra GT 2.0 8V (Flex) 2009;Flex; 36.900,00;2008;100;Prata;0;Chapecó;1;0;1;1;0;1;1;1;0;1;0;1;1;0;1;0;0;1;0;0;0;1;-52.61519;-27.100448;2000.0
164;Citroën C3 GLX 1.4 8V (flex) 2012;Flex; 29.900,00;2012;56.100;Prata;0;Porto Alegre;1;1;1;1;0;0;1;0;0;0;0;1;1;0;0;0;0;0;0;0;0;1;-51.206533;-30.031771;1400.0
165;Chevrolet Astra Hatch Advantage 2.0 (Flex) 2010;Flex; 32.490,00;2010;161.000;Verde;0;Piracicaba;1;0;1;1;0;1;1;1;0;1;0;1;1;0;1;0;0;1;0;0;0;1;-47.647612;-22.733801;2000.0
166;Fiat Uno Vivace 1.0 8V (Flex) 4p 2011;Flex; 26.990,00;2010;148.000;Cinza;0;Hortolândia;0;0;0;0;0;0;1;0;0;1;0;1;0;0;0;0;0;0;0;0;0;1;-47.214259;-22.852854;1000.0
167;Ford Fiesta Hatch SE Rocam 1.6 (Flex) 2014;Flex; 32.900,00;2013;175.000;Branco;0;Suzano;1;1;1;1;0;1;1;1;1;1;0;1;1;0;0;0;1;1;0;0;0;1;-46.311181;-23.544828;1600.0
168;Volkswagen Fox Plus 1.0 8V (Flex) 2009;Flex; 25.990,00;2009;210.000;Prata;0;Campinas;0;0;0;0;0;0;0;0;0;0;0;0;0;0;0;0;0;0;0;0;0;0;-47.06595;-22.905346;1000.0
169;Ford Fiesta Sedan SE 1.6 Rocam (Flex) 2014;Flex; 38.990,00;2014;124.000;Prata;0;Guarulhos;0;0;0;1;0;1;1;0;1;1;0;1;1;0;1;0;0;0;0;0;1;0;-46.533347;-23.453758;1600.0
170;Volkswagen Gol 1.0 (G5) (Flex) 2012;Flex; 34.900,00;2011;168.621;Preto;0;Alvorada;0;0;0;1;0;0;1;1;0;0;0;1;1;0;0;0;0;1;0;0;0;1;-49.124926;-12.478465;1000.0
171;Chevrolet Vectra Elegance 2.0 (Flex) 2009;Flex; 32.500,00;2008;118.000;Prata;0;Cotia;1;0;0;1;0;0;1;1;1;1;0;1;1;0;0;0;0;1;0;0;0;0;-46.91902;-23.602177;2000.0
172;Ford Fiesta Sedan 1.0 (Flex) 2009;Flex; 22.900,00;2009;131.000;Preto;0;Piracicaba;0;0;0;1;0;0;1;0;0;1;0;0;1;0;1;0;0;0;0;0;1;0;-47.647612;-22.733801;1000.0
173;Volkswagen Fox City 1.0 8V (Flex) 2008;Flex; 22.900,00;2007;201.305;Preto;0;Jacareí;0;0;0;0;0;0;0;0;0;0;0;0;0;0;1;0;0;0;0;0;0;0;-45.965814;-23.29829;1000.0
174;Citroën Xsara Picasso Exclusive 1.6 16V (flex) 2012;Flex; 29.900,00;2011;N/D;Prata;0;Pelotas;1;1;1;1;0;1;1;0;0;1;0;1;1;0;0;0;0;1;0;0;0;1;-52.337058;-31.764898;1600.0
175;Renault Sandero Stepway 1.6 8V (flex) 2014;Flex; 37.900,00;2014;104.000;Preto;0;Belém;1;1;1;1;0;1;1;1;1;1;0;1;1;0;0;0;0;0;0;0;0;1;-48.489756;-1.455396;1600.0
176;Fiat Mobi Evo Easy 1.0 (Flex) 2018;Flex; 36.900,00;2017;82.123;Preto;0;Pato Branco;0;0;0;0;0;0;0;0;0;0;0;0;0;0;0;0;0;0;0;0;0;0;-52.67063;-26.229237;1000.0
177;Ford Fiesta Hatch Rocam 1.0 (Flex) 2013;Flex; 27.990,00;2013;111.111;Vermelho;0;Campinas;0;0;0;1;0;0;1;0;0;1;0;0;1;0;0;0;0;0;0;0;0;0;-47.06595;-22.905346;1000.0
178;Renault Kangoo Express 1.6 16V Com Porta Lateral(Flex) 2012;Flex; 35.800,00;2011;98.000;Amarelo;0;São José do Rio Preto;0;0;0;0;0;0;0;0;0;0;0;0;0;0;0;0;0;0;0;0;0;0;-49.375767;-20.811289;1600.0
179;Renault Sandero Authentique 1.0 16V (flex) 2013;Flex; 29.900,00;2013;97.000;Prata;0;Mogi Guaçu;0;0;0;0;0;0;0;0;0;0;0;0;0;0;0;0;0;0;0;0;0;0;-46.9428;-22.367453;1000.0
180;Chevrolet Agile LTZ 1.4 8V (Flex) 2011;Flex; 32.890,00;2011;129.775;Preto;0;São Paulo;0;0;0;1;0;1;1;1;1;1;0;1;1;0;1;0;0;1;1;0;0;1;-46.63952;-23.532905;1400.0
181;Fiat Uno Vivace 1.0 8V (Flex) 4p 2012;Flex; 29.900,00;2011;101.810;Azul;0;Aparecida de Goiânia;0;0;0;0;0;0;0;0;0;0;0;0;0;0;0;0;0;0;0;0;0;0;-49.246856;-16.819804;1000.0
182;Kia Picanto EX 1.0 (Aut) 2011;Flex; 33.990,00;2010;60.000;Cinza;1;São Paulo;1;0;1;1;0;1;1;1;1;1;0;1;1;1;1;0;0;0;0;0;0;1;-46.63952;-23.532905;1000.0
183;Nissan March 1.0 16V (Flex) 2014;Flex; 36.800,00;2013;108.800;Preto;0;Curitiba;1;0;1;1;0;0;1;0;0;0;0;1;1;0;0;0;0;0;0;0;1;1;-49.264622;-25.419547;1000.0
184;Renault Sandero Authentique 1.0 12V SCe (Flex) 2018;Flex; 38.900,00;2017;156.949;Cinza;0;Belo Horizonte;1;1;1;1;0;0;0;0;0;0;0;1;0;0;0;0;0;0;0;0;0;1;-43.926572;-19.910183;1000.0
185;Chevrolet Montana LS 1.4 (Flex) 2012;Flex; 38.900,00;2011;123.456;Cinza;0;São Carlos;0;1;0;0;1;0;0;0;0;0;0;0;0;0;0;0;0;0;0;0;0;0;-47.885971;-22.017395;1400.0
186;Ford Ka 1.0 (Flex) 2012;Flex; 23.887,00;2011;133.000;Vermelho;0;Sorocaba;0;0;0;1;0;1;1;0;0;1;0;1;0;0;1;0;0;0;0;0;0;1;-47.445073;-23.496886;1000.0
187;Chevrolet Meriva Maxx 1.4 (Flex) 2010;Flex; 28.500,00;2009;226.028;Preto;0;São José do Rio Preto;1;0;0;1;0;0;1;0;0;1;0;1;1;0;0;0;0;0;0;0;0;1;-49.375767;-20.811289;1400.0
188;Ford Ka 1.0 (Flex) 2011;Flex; 22.000,00;2010;159.600;Preto;0;Itabuna;0;0;0;0;0;0;1;0;0;0;0;0;1;0;0;0;0;0;0;0;0;0;-39.278056;-14.787573;1000.0
189;Fiat Uno Vivace 1.0 8V (Flex) 4p 2014;Flex; 33.990,00;2013;67.815;Prata;0;Chapecó;1;1;1;1;0;0;1;0;0;0;0;1;1;0;0;0;0;0;0;0;0;1;-52.61519;-27.100448;1000.0
190;Volkswagen Gol 1.6 VHT City (Flex) 4p 2013;Flex; 34.900,00;2013;145.000;Prata;0;Brasília;1;1;1;1;0;1;1;0;0;1;0;1;0;0;0;0;0;1;0;0;0;1;-47.929657;-15.779522;1600.0
191;Volkswagen Fox City 1.0 8V (Flex) 2009;Flex; 25.900,00;2008;120.100;Cinza;0;Sorocaba;0;0;0;0;0;0;0;0;0;0;0;0;0;0;1;0;0;0;0;0;0;0;-47.445073;-23.496886;1000.0
192;Ford Fiesta Hatch Rocam 1.0 (Flex) 2013;Flex; 27.890,00;2013;142.950;Preto;0;Guarulhos;0;0;0;0;0;0;1;0;0;1;0;1;1;0;0;0;0;0;0;0;0;1;-46.533347;-23.453758;1000.0
193;Ford Fiesta Hatch 1.0 (Flex) 2012;Flex; 25.990,00;2011;199.000;Preto;0;Guarulhos;0;0;0;1;0;0;1;0;0;0;0;1;1;0;0;0;0;0;0;0;0;0;-46.533347;-23.453758;1000.0
194;Fiat Uno Sporting 1.4 8V (Flex) 4p 2013;Flex; 34.900,00;2012;121.557;Branco;0;Londrina;0;1;1;1;0;1;1;0;0;0;0;1;0;0;0;0;0;0;0;0;0;1;-51.1691;-23.303975;1400.0
195;Ford Ka 1.6 Sport (Flex) 2013;Flex; 28.900,00;2013;95.500;Preto;0;São José dos Pinhais;0;0;0;0;0;0;0;0;0;0;0;0;0;0;0;0;0;0;0;0;0;0;-49.203097;-25.531343;1600.0
196;Fiat Uno Mille Fire Economy Way 1.0 (Flex) 4p 2013;Flex; 29.900,00;2013;120.000;Cinza;0;Uberlândia;0;0;0;0;0;0;0;0;0;0;0;0;0;0;0;0;0;0;0;0;0;0;-48.274934;-18.914142;1000.0
197;Ford Ka Hatch SE Plus 1.0 (Flex) 2015;Flex; 37.900,00;2014;168.780;Prata;0;São Paulo;1;1;1;1;1;0;1;0;1;1;0;1;1;0;1;0;0;0;0;0;0;1;-46.63952;-23.532905;1000.0
198;Chevrolet Zafira Elite 2.0 (Flex) (Aut) 2011;Flex; 35.910,00;2010;213.000;Prata;1;Blumenau;1;1;0;0;0;1;1;0;0;1;0;1;0;1;0;0;0;0;0;0;1;1;-49.070904;-26.915501;2000.0
199;Chevrolet Corsa Hatch Maxx 1.4 (Flex) 2012;Flex; 33.900,00;2012;135.300;Preto;1;Santo André;0;0;0;0;0;0;1;0;1;1;0;0;1;1;0;0;0;0;0;0;0;0;-36.621339;-7.220157;1400.0
200;Fiat Uno Way 1.4 8V (Flex) 2p 2012;Flex; 33.990,00;2011;98.000;Bege;0;Fortaleza;0;1;0;1;0;1;1;0;1;1;0;1;1;0;0;0;0;0;0;0;0;1;-38.542298;-3.716638;1400.0
201;Honda Fit LX 1.4 (flex) 2010;Flex; 38.900,00;2009;117.296;Cinza;0;Osasco;1;0;1;1;0;1;1;0;0;1;0;1;0;0;1;0;0;0;0;0;0;1;-46.791555;-23.53239;1400.0
202;Chevrolet Celta LT 1.0 (Flex) 2015;Flex; 38.000,00;2014;115.000;Branco;0;Jundiaí;1;1;0;1;0;0;1;1;0;1;0;1;0;0;0;0;0;0;0;0;0;1;-46.897358;-23.185218;1000.0
203;Volkswagen Fox 1.0 TEC (Flex) 4p 2014;Flex; 37.990,00;2013;86.000;Branco;0;Campinas;1;0;0;1;0;0;1;0;0;1;0;1;0;0;0;0;0;0;0;0;0;1;-47.06595;-22.905346;1000.0
204;Fiat Siena EL 1.0 8V (Flex) 2011;Flex; 27.900,00;2010;180.000;Azul;0;Bocaiúva do Sul;0;0;0;0;0;0;0;1;0;1;0;1;0;0;0;0;0;0;0;0;0;0;-49.114131;-25.206591;1000.0
205;Fiat Uno Vivace 1.0 8V (Flex) 4p 2013;Flex; 35.900,00;2012;98.400;Azul;0;Novo Hamburgo;1;1;1;1;0;0;1;0;0;1;0;0;0;0;0;0;0;0;0;0;0;0;-51.132828;-29.687548;1000.0
206;Citroën C3 GLX 1.4 8V (flex) 2012;Flex; 26.790,00;2011;97.585;Prata;0;São Paulo;0;0;0;1;1;1;1;0;1;1;0;1;1;0;1;0;0;1;0;0;1;1;-46.63952;-23.532905;1400.0
207;Volkswagen Gol 1.0 8V (G4)(Flex)4p 2014;Flex; 36.490,00;2013;107.251;Branco;0;Bebedouro;1;1;1;1;0;0;1;0;0;0;0;1;1;0;1;0;0;1;0;0;0;1;-48.479083;-20.949077;1000.0
208;Renault Sandero Expression 1.0 16V (flex) 2011;Flex; 25.990,00;2010;140.000;Vermelho;0;Campinas;0;0;0;0;0;0;0;0;0;1;0;1;0;0;0;0;0;0;0;0;0;0;-47.06595;-22.905346;1000.0
209;Chevrolet Celta LT 1.0 (Flex) 2012;Flex; 28.900,00;2012;120.100;Prata;0;São Paulo;0;1;0;0;0;0;1;0;0;1;0;1;1;0;0;0;0;0;0;0;0;1;-46.63952;-23.532905;1000.0
210;Volkswagen Polo Hatch. Sportline 1.6 8V (Flex) 2010;Flex; 35.900,00;2009;132.000;Prata;0;Jataí;1;1;1;1;0;1;0;0;0;0;0;1;1;0;0;0;0;0;0;0;0;0;-51.720424;-17.878383;1600.0
211;Chevrolet Astra Sedan Advantage 2.0 (Flex) 2011;Flex; 33.900,00;2010;134.000;Prata;0;São Paulo;1;0;0;1;0;1;1;1;0;1;0;1;1;0;1;0;0;1;0;1;0;0;-46.63952;-23.532905;2000.0
212;Chevrolet Meriva Maxx 1.4 (Flex) 2010;Flex; 31.900,00;2010;150.000;Preto;0;São Paulo;0;0;0;1;0;1;1;1;1;1;0;1;1;0;1;0;0;1;0;0;0;1;-46.63952;-23.532905;1400.0
213;Chevrolet Celta LT 1.0 (Flex) 2015;Flex; 35.000,00;2015;95.000;Branco;0;Rio Branco;0;0;0;0;0;0;0;0;0;0;0;0;0;0;0;0;0;0;0;0;0;0;-58.125892;-15.248331;1000.0
214;Volkswagen Polo Sedan 1.6 8V (Flex) 2012;Flex; 37.490,00;2012;115.013;Preto;0;Campinas;0;0;0;0;0;0;0;0;0;0;0;0;0;0;0;0;0;0;0;0;0;0;-47.06595;-22.905346;1600.0
215;Renault Clio Expression 1.0 16V (Flex) 2016;Flex; 33.900,00;2015;110.000;Branco;0;Jacareí;1;1;1;1;0;0;0;0;0;1;0;1;0;0;0;0;0;0;0;0;0;1;-45.965814;-23.29829;1000.0
216;Volkswagen Gol 1.6 VHT City (Flex) 4p 2014;Flex; 36.900,00;2014;85.231;Prata;0;Curitiba;1;1;1;1;0;0;1;0;0;0;0;0;1;0;0;0;0;0;0;0;0;1;-49.264622;-25.419547;1600.0
217;Citroën C3 Exclusive 1.6 16V (Flex)(aut) 2012;Flex; 33.990,00;2011;97.000;Vermelho;1;Curitiba;1;0;0;1;0;0;0;0;0;0;0;1;0;1;0;0;0;1;0;0;0;1;-49.264622;-25.419547;1600.0
218;Ford Focus Sedan GL 1.6 16V (Flex) 2012;Flex; 36.900,00;2011;143.180;Prata;0;Hortolândia;1;1;0;1;0;0;0;0;0;0;0;0;0;0;0;0;0;0;0;0;0;0;-47.214259;-22.852854;1600.0
219;Ford Ka 1.0 (Flex) 2013;Flex; 26.900,00;2012;87.000;Branco;0;Ponta Grossa;0;0;0;0;0;0;1;0;0;1;0;0;1;0;0;0;0;0;0;0;0;0;-50.166787;-25.091622;1000.0
220;Volkswagen Gol Power 1.6 MI (Flex) 2005;Flex; 24.890,00;2004;240.000;Prata;0;Sertãozinho;0;0;0;0;0;0;1;1;0;1;0;1;1;0;0;0;0;0;0;0;0;1;-47.987496;-21.131596;1600.0
221;Renault Clio Expression 1.0 16V (Flex) 2016;Flex; 33.900,00;2015;113.316;Prata;0;Campo Grande;1;1;1;1;0;0;0;0;0;1;0;1;0;0;0;0;0;0;0;0;0;1;-37.310572;-5.8536;1000.0
222;Ford Fiesta Sedan 1.0 Rocam (Flex) 2013;Flex; 29.900,00;2012;199.999;Preto;0;São Paulo;0;0;0;1;0;0;1;0;0;0;0;0;1;0;0;0;0;0;0;0;0;0;-46.63952;-23.532905;1000.0
223;Ford Fiesta Sedan 1.0 (Flex) 2011;Flex; 27.900,00;2011;81.000;Preto;0;Carapicuíba;0;0;0;0;0;0;0;0;0;0;0;0;0;0;0;0;0;0;0;0;0;0;-46.840676;-23.523471;1000.0
224;Chevrolet Classic LS VHC E 1.0 (Flex) 2012;Flex; 28.500,00;2012;112.000;Cinza;0;Campo Grande;0;0;0;0;0;0;0;0;0;0;0;1;0;0;0;0;0;0;0;0;0;0;-36.792608;-9.955423;1000.0
225;Renault Sandero Expression 1.0 16V (Flex) 2015;Flex; 37.900,00;2015;83.285;Branco;0;Catanduva;1;1;1;1;0;1;1;1;1;1;0;1;1;0;0;0;0;0;0;0;0;1;-48.977015;-21.131381;1000.0
226;Volkswagen Fox 1.0 VHT (Flex) 4p 2012;Flex; 32.990,00;2011;113.000;Preto;1;São Paulo;1;1;0;1;0;0;1;0;1;1;0;1;1;1;0;0;0;0;0;0;0;1;-46.63952;-23.532905;1000.0
227;Renault Kangoo Express 1.6 16V (Flex) 2014;Flex; 38.900,00;2013;156.362;Branco;0;Cotia;0;0;0;0;0;0;0;0;0;0;0;0;0;0;0;0;0;0;0;0;0;0;-46.91902;-23.602177;1600.0
228;Renault Clio Expression 1.0 16V (Flex) 2014;Flex; 29.800,00;2013;162.225;Vermelho;0;Curitiba;0;0;0;0;0;0;1;0;0;0;0;0;0;0;0;0;0;0;0;0;0;1;-49.264622;-25.419547;1000.0
229;Renault Logan Authentique 1.0 16V (flex) 2015;Flex; 34.900,00;2015;132.590;Branco;0;Curitiba;1;1;0;0;0;0;1;0;0;0;0;1;0;0;0;0;0;0;0;0;0;0;-49.264622;-25.419547;1000.0
230;Volkswagen Fox 1.6 8V (Flex) 2011;Flex; 32.900,00;2010;150.000;Vermelho;0;Votorantim;0;0;0;1;0;0;1;1;0;1;0;1;1;0;0;0;0;1;0;0;0;1;-47.438753;-23.54459;1600.0
231;Chevrolet Celta LT 1.0 (Flex) 2013;Flex; 32.900,00;2012;120.360;Prata;0;Osasco;0;0;0;1;0;0;1;0;1;0;0;1;1;0;0;0;0;0;0;0;0;1;-46.791555;-23.53239;1000.0
232;Chevrolet Astra Hatch Advantage 2.0 (Flex) (Aut) 2011;Flex; 38.800,00;2011;160.000;Preto;1;Louveira;0;0;0;1;0;0;1;0;0;0;0;1;1;1;0;0;0;1;0;0;0;1;-46.948369;-23.085572;2000.0
233;Renault Clio Expression 1.0 16V (Flex) 2014;Flex; 30.000,00;2014;28.689;Branco;0;Cacoal;0;0;0;1;0;0;0;0;0;0;0;1;0;0;0;0;0;0;0;0;0;0;-61.456167;-11.434271;1000.0
234;Volkswagen SpaceFox 1.6 8V (Flex) 2011;Flex; 36.900,00;2010;165.000;Prata;0;Mogi Guaçu;0;0;0;1;0;0;1;0;1;1;0;0;1;0;0;0;0;1;0;0;0;0;-46.9428;-22.367453;1600.0
235;Chevrolet Classic LS VHC E 1.0 (Flex) 2014;Flex; 32.900,00;2013;95.965;Preto;0;Itapevi;0;0;0;0;0;0;1;0;0;1;0;0;0;0;1;0;0;0;0;0;0;0;-46.932747;-23.548774;1000.0
236;Volkswagen Fox 1.6 8V (Flex) 2011;Flex; 34.000,00;2011;105.652;Prata;1;Bauru;1;1;0;1;0;0;1;0;1;1;0;1;0;1;1;0;0;1;0;0;0;1;-49.087142;-22.324569;1600.0
237;Fiat Palio Fire 1.0 8V (Flex) 2p 2015;Flex; 29.000,00;2014;130.000;Branco;0;Ibitinga;1;1;1;1;0;0;0;0;0;0;0;1;0;0;0;0;0;0;0;0;0;1;-48.831903;-21.75623;1000.0
238;Fiat Uno Way 1.0 8V (Flex) 4p 2012;Flex; 33.900,00;2011;171.000;Vermelho;0;Santos;1;0;0;1;0;0;0;0;0;0;0;0;0;0;0;0;0;0;0;0;0;0;-46.335042;-23.953543;1000.0
239;Chevrolet Celta LT 1.0 (Flex) 2014;Flex; 36.000,00;2014;99.000;Prata;0;Mogi Guaçu;1;0;1;1;0;0;1;1;0;1;0;1;1;0;0;0;0;0;0;0;0;1;-46.9428;-22.367453;1000.0
240;BMW I3 BEV Full 2021;Híbrido / Elétrico; 217.300,00;2020;17.381;Preto;1;Mogi das Cruzes;1;0;1;1;1;1;1;0;1;1;0;1;1;1;1;0;0;1;1;1;1;1;-46.18541;-23.52082;
241;Citroën C3 Exclusive 1.4 8V (flex) 2012;Flex; 28.900,00;2011;131.800;Prata;0;São Paulo;1;0;1;1;0;1;1;0;0;1;0;1;0;0;0;0;0;1;0;0;0;1;-46.63952;-23.532905;1400.0
242;Volkswagen Gol 1.0 TEC City (Flex) 2p 2014;Flex; 29.900,00;2013;140.000;Vermelho;0;Boa Vista;0;0;0;0;0;0;0;0;0;0;0;0;0;0;0;0;0;0;0;0;0;0;-36.235706;-7.263653;1000.0
243;Volkswagen SpaceFox 1.6 8V (Flex) 2011;Flex; 32.990,00;2010;148.260;Prata;1;Porto Alegre;1;1;1;1;0;0;1;0;0;0;0;0;0;1;0;0;0;0;0;0;1;1;-51.206533;-30.031771;1600.0
244;Citroën C3 Exclusive 1.6 16V (Flex)(aut) 2011;Flex; 32.900,00;2010;114.300;Prata;1;Volta Redonda;1;0;1;1;1;1;1;0;1;1;0;0;1;1;1;0;0;1;0;0;1;1;-44.099555;-22.520212;1600.0
245;Ford EcoSport Ecosport XLT Freestyle 1.6 (Flex) 2008;Flex; 35.900,00;2008;174.000;Preto;0;Sorocaba;0;0;0;0;0;0;1;0;0;1;0;1;0;0;0;0;0;0;0;0;0;1;-47.445073;-23.496886;1600.0
246;Fiat Uno Vivace 1.0 8V (Flex) 4p 2014;Flex; 35.900,00;2013;98.000;Cinza;0;Fortaleza;1;1;1;1;0;0;0;0;0;0;0;1;0;0;0;0;0;0;0;0;0;0;-38.542298;-3.716638;1000.0
247;Ford New Fiesta Sedan 1.6 SE (Flex) 2014;Flex; 36.000,00;2014;80.119;Preto;0;Ribeirão Preto;1;1;1;1;0;0;1;1;1;0;0;0;1;0;0;0;0;0;0;0;0;0;-47.809875;-21.169923;1600.0
248;Fiat Palio Fire 1.0 8V (Flex) 2p 2015;Flex; 26.990,00;2014;159.000;Preto;0;Campinas;1;1;1;0;0;0;0;0;0;0;0;0;0;0;0;0;0;0;0;0;0;0;-47.06595;-22.905346;1000.0
249;Fiat Punto Essence 1.6 16V Dualogic (Flex) 2012;Flex; 35.199,00;2012;101.424;Vermelho;1;Belo Horizonte;1;1;0;0;0;0;0;0;1;0;0;0;0;1;0;0;0;0;0;0;0;0;-43.926572;-19.910183;1600.0
250;Volkswagen Fox 1.6 VHT Prime (Flex) 2012;Flex; 35.900,00;2011;185.565;Preto;0;São Carlos;0;0;0;0;0;1;0;0;0;0;0;1;0;0;1;0;0;0;0;0;0;1;-47.885971;-22.017395;1600.0
251;Ford Fiesta Hatch 1.0 (Flex) 2012;Flex; 25.999,00;2012;101.254;Preto;0;São José do Rio Preto;0;0;0;0;0;0;1;0;0;1;0;1;1;0;0;0;0;0;0;0;0;0;-49.375767;-20.811289;1000.0
252;Fiat Punto Attractive 1.4 (Flex) 2013;Flex; 38.990,00;2012;115.235;Vermelho;0;São Luís;0;0;0;0;0;0;0;0;0;0;0;0;0;0;0;0;0;0;0;0;0;0;-44.282513;-2.538742;1400.0
253;Fiat Palio Weekend Adventure Locker 1.8 8V Dualogic (Flex) 2010;Flex; 35.900,00;2009;132.245;Prata;1;São Paulo;1;1;0;1;0;0;1;0;0;1;0;0;1;1;0;0;0;0;0;0;0;0;-46.63952;-23.532905;1800.0
254;Renault Clio Expression 1.0 16V (Flex) 2016;Flex; 38.900,00;2015;72.580;Vinho;0;São Bernardo do Campo;1;1;1;1;0;0;0;0;0;1;0;1;0;0;1;0;0;0;0;0;0;1;-46.564617;-23.691412;1000.0
255;Citroën C3 Picasso GL 1.6 16V (Flex) 2012;Flex; 34.900,00;2012;N/D;Preto;0;Passo Fundo;0;0;0;1;0;1;1;0;0;1;0;0;0;0;0;0;0;1;0;0;0;1;-52.409112;-28.257564;1600.0
256;Fiat Weekend Trekking 1.6 E.torQ (Flex) 2015;Flex; 34.900,00;2014;182.000;Branco;0;São Paulo;0;0;0;0;0;1;0;0;0;1;0;1;0;0;0;0;0;0;0;0;0;1;-46.63952;-23.532905;1600.0
257;Fiat Uno Vivace 1.0 8V (Flex) 4p 2013;Flex; 32.900,00;2012;89.000;Prata;0;Montes Claros;1;0;1;0;0;0;1;1;1;1;0;0;1;0;0;0;0;0;0;0;0;1;-43.857809;-16.728177;1000.0
258;Nissan Versa 1.6 16V SL 2014;Flex; 37.900,00;2013;102.820;Preto;0;São José;1;1;0;1;0;1;1;0;0;1;0;1;1;0;0;0;0;0;0;0;0;0;-48.636607;-27.613577;1600.0
259;Volkswagen Voyage Comfortline 1.6 (Flex) 2011;Flex; 35.500,00;2010;116.000;Prata;0;Joinville;0;0;0;1;0;0;1;0;0;0;0;1;0;0;0;0;0;0;0;0;0;0;-48.848675;-26.304497;1600.0
260;Fiat Idea Attractive 1.4 8V (Flex) 2012;Flex; 34.000,00;2011;104.291;Prata;0;Rio Claro;0;0;0;0;0;1;1;1;0;1;0;1;0;0;1;0;0;1;0;0;0;1;-44.141874;-22.720001;1400.0
261;Fiat Palio Attractive 1.4 8V (Flex) 2012;Flex; 36.900,00;2012;200;Azul;0;São Gonçalo;0;0;0;1;0;0;0;0;0;0;0;0;1;0;0;0;0;0;0;0;0;0;-43.063351;-22.82679;1400.0
262;Ford Fiesta Hatch Rocam 1.6 (Flex) 2013;Flex; 33.900,00;2012;108.000;Preto;0;São Paulo;0;0;0;1;0;0;1;1;1;1;0;1;1;0;1;0;0;0;0;0;0;1;-46.63952;-23.532905;1600.0
263;Volkswagen Voyage 1.0 Total Flex 2012;Flex; 29.800,00;2011;142.568;Branco;0;São José do Rio Preto;0;0;0;0;0;0;1;0;0;1;0;0;0;0;0;0;0;0;0;0;0;0;-49.375767;-20.811289;1000.0
264;Lifan X60 1.8 16V VVT 2014;Gasolina; 36.900,00;2013;82.000;Prata;0;Belo Horizonte;1;1;1;1;0;1;1;0;0;1;0;1;1;0;1;0;0;1;0;1;1;1;-43.926572;-19.910183;1800.0
265;Fiat Siena EL 1.4 8V (Flex) 2013;Flex; 38.900,00;2012;105.000;Vermelho;0;Blumenau;0;0;0;1;0;0;0;0;0;1;0;0;1;0;0;0;0;0;0;0;0;0;-49.070904;-26.915501;1400.0
266;Fiat Palio ELX 1.4 (Flex) 2010;Flex; 30.000,00;2009;190.000;Preto;0;Araras;0;0;0;0;0;1;1;0;0;1;0;1;0;0;0;0;0;0;0;0;0;1;-47.384235;-22.357238;1400.0
267;Volkswagen Gol 1.0 TEC City (Flex) 4p 2014;Flex; 34.990,00;2014;131.000;Prata;0;Curitiba;1;1;0;1;0;0;1;0;0;1;0;0;0;0;0;0;0;0;0;0;0;0;-49.264622;-25.419547;1000.0
268;Fiat Uno Way 1.0 8V (Flex) 4p 2011;Flex; 28.500,00;2010;200.000;Preto;0;Araraquara;1;0;0;0;0;0;1;0;0;0;0;0;1;0;0;0;0;0;0;0;0;1;-48.178014;-21.784511;1000.0
269;Volkswagen Gol 1.0 (G4) (Flex) 2p 2011;Flex; 22.900,00;2010;160.536;Cinza;0;Sorocaba;0;0;0;0;0;0;0;0;0;0;0;0;0;0;0;0;0;0;0;0;0;0;-47.445073;-23.496886;1000.0
270;Chevrolet Corsa Hatch Maxx 1.4 (Flex) 2011;Flex; 28.900,00;2010;138.000;Preto;0;Goiânia;1;1;1;1;0;1;0;1;0;1;0;1;0;0;1;0;0;0;0;0;0;1;-49.264346;-16.686439;1400.0
271;Citroën C3 GLX 1.4 8V (flex) 2011;Flex; 27.990,00;2010;15.600;Vermelho;0;Campinas;1;0;0;1;0;0;1;0;0;0;0;0;0;0;0;0;0;0;0;0;1;0;-47.06595;-22.905346;1400.0
272;Chevrolet Vectra GT 2.0 8V (Flex) (Aut) 2010;Flex; 34.000,00;2009;170.000;Preto;1;Dourados;1;1;1;1;0;1;1;1;0;1;0;1;1;1;1;0;0;1;1;0;0;1;-54.812043;-22.223099;2000.0
273;Fiat Palio ELX 1.4 (Flex) 2008;Flex; 26.500,00;2007;148.000;Preto;0;Guarulhos;0;0;0;1;0;0;0;0;0;0;0;1;0;0;0;0;0;1;0;0;0;1;-46.533347;-23.453758;1400.0
274;Fiat Idea Adventure 1.8 (Flex) 2010;Flex; 28.900,00;2010;140.000;Preto;0;São Paulo;1;1;1;1;0;1;1;1;0;1;0;1;0;0;1;0;0;1;0;0;0;1;-46.63952;-23.532905;1800.0
275;Fiat Palio ELX 1.4 (Flex) 2008;Flex; 27.800,00;2007;186.567;Preto;0;Cascavel;0;0;0;0;0;0;0;0;0;1;0;0;0;0;1;0;0;0;0;0;0;0;-38.241178;-4.129666;1400.0
276;Chevrolet Celta LT 1.0 (Flex) 2013;Flex; 35.900,00;2012;85.000;Prata;0;Manaus;0;1;0;1;0;0;1;1;0;1;0;1;1;0;0;0;0;0;0;0;0;1;-60.02123;-3.118662;1000.0
277;Volkswagen Golf 1.6 MI 2002;Gasolina; 25.900,00;2002;296.000;Branco;0;Curitiba;0;0;0;0;0;0;0;0;0;0;0;0;0;0;0;0;0;0;0;0;0;0;-49.264622;-25.419547;1600.0
278;Volkswagen Fox Plus 1.6 8V (Flex) 2006;Flex; 25.900,00;2006;195.000;Preto;0;São José dos Campos;0;0;0;1;0;1;1;0;0;1;0;1;1;0;1;0;0;0;0;0;0;1;-45.884115;-23.189554;1600.0
279;Nissan Tiida SL 1.8 (flex) (aut) 2010;Flex; 29.990,00;2009;113.000;Preto;1;Recife;1;1;1;1;0;1;1;1;0;1;0;1;1;1;1;0;0;1;1;0;1;1;-34.877065;-8.046658;1800.0
280;Renault Logan Authentique 1.0 16V (flex) 2015;Flex; 35.900,00;2014;110.000;Branco;0;Goiânia;0;0;0;1;0;0;1;0;0;0;0;0;1;0;0;0;0;0;0;0;0;0;-49.264346;-16.686439;1000.0
281;Citroën C4 Pallas GLX 2.0 16V (flex) (aut) 2010;Flex; 32.900,00;2009;155.800;Prata;1;Mogi Guaçu;1;1;1;1;0;0;1;0;0;1;0;0;0;1;0;0;0;1;0;0;0;0;-46.9428;-22.367453;2000.0
282;Chevrolet Classic LS VHC E 1.0 (Flex) 2014;Flex; 29.500,00;2013;60.080;Branco;0;São Carlos;0;0;0;0;0;0;0;0;0;0;0;1;0;0;0;0;0;0;0;0;0;0;-53.003704;-27.079757;1000.0
283;Citroën Xsara Picasso GLX 1.6 16V (flex) 2012;Flex; 26.900,00;2011;110.000;Prata;0;Curitiba;1;0;1;1;0;0;1;0;0;0;0;1;0;0;0;0;0;1;0;0;0;1;-49.264622;-25.419547;1600.0
284;Volkswagen Polo Hatch. 1.6 8V (Flex) 2009;Flex; 32.000,00;2008;150.487;Prata;0;Marabá;1;0;0;1;0;0;0;0;0;1;0;0;1;0;0;0;0;0;0;0;0;0;-49.132672;-5.38075;1600.0
285;Volkswagen Fox 1.6 VHT (Flex) 2012;Flex; 38.000,00;2012;142.742;Vermelho;0;Caicó;0;0;0;1;0;0;1;1;1;1;0;1;1;0;1;0;0;0;0;0;0;1;-37.106723;-6.454415;1600.0
286;Fiat Palio Weekend ELX 1.4 8V (Flex) 2009;Flex; 27.900,00;2008;132.391;Cinza;0;Novo Hamburgo;0;0;0;1;0;1;1;0;0;1;0;1;0;0;0;0;0;0;0;0;0;1;-51.132828;-29.687548;1400.0
287;Peugeot 307 Hatch. Presence 1.6 16V (flex) 2011;Flex; 29.900,00;2010;132.000;Preto;0;Joinville;0;0;0;1;0;1;1;0;0;1;0;1;1;0;0;0;0;1;0;0;0;1;-48.848675;-26.304497;1600.0
288;Chevrolet Celta LS 1.0 (Flex) 4p 2012;Flex; 27.890,00;2011;159.000;Prata;0;Belo Horizonte;0;0;0;0;0;0;1;0;0;0;0;0;0;0;0;0;0;0;0;0;0;0;-43.926572;-19.910183;1000.0
289;Renault Sandero Stepway 1.6 16V (Flex) 2012;Flex; 36.900,00;2012;162.334;Prata;0;Cianorte;0;0;0;1;1;0;0;0;0;0;0;0;1;0;0;0;0;0;0;0;0;0;-52.605444;-23.659859;1600.0
290;Ford Ka Hatch SE 1.0 (Flex) 2015;Flex; 38.900,00;2015;60.000;Preto;0;Goiânia;1;0;1;1;1;0;1;0;0;0;0;1;1;0;0;0;0;0;0;0;0;1;-49.264346;-16.686439;1000.0
291;Fiat Strada Adventure Locker 1.8 8V (Flex) (Cabine Estendida) 2009;Flex; 37.900,00;2008;184.834;Verde;0;Rio das Ostras;0;0;0;1;0;1;1;0;0;1;0;0;0;0;0;0;0;0;0;0;0;0;-41.947509;-22.517378;1800.0
292;Fiat Strada 1.4 Cabine Dupla Endurance 2022;Flex; 82.510,00;2022;51.574;Branco;0;Salvador;0;1;1;1;0;1;0;0;0;0;0;0;0;0;0;0;1;0;0;0;0;0;-38.501068;-12.97178;1400.0
293;Citroën Aircross GLX 1.6 16V (flex) 2012;Flex; 36.900,00;2011;161.444;Branco;0;Ribeirão Preto;1;1;1;1;0;0;1;0;0;1;0;0;1;0;0;0;0;0;0;0;0;0;-47.809875;-21.169923;1600.0
294;Fiat Uno Vivace 1.0 8V (Flex) 4p 2011;Flex; 28.500,00;2010;140.000;Preto;0;Araraquara;0;0;0;0;0;0;0;0;0;0;0;0;0;0;0;0;0;0;0;0;0;0;-48.178014;-21.784511;1000.0
295;Volkswagen Gol Power 1.6 MI (Flex) 2005;Flex; 24.890,00;2004;240.000;Prata;0;Sertãozinho;0;0;0;0;0;0;1;1;0;1;0;1;1;0;0;0;0;0;0;0;0;1;-35.437159;-6.751273;1600.0
296;Chevrolet Astra Hatch Advantage 2.0 (Flex) 2011;Flex; 36.990,00;2010;192.070;Prata;0;Valinhos;1;1;1;0;0;0;1;0;0;0;0;1;1;0;0;0;0;1;0;0;0;1;-46.997367;-22.969805;2000.0
297;Fiat Palio Fire 1.0 8V (Flex) 2p 2013;Flex; 25.900,00;2013;181.000;Branco;0;Catanduva;0;0;0;0;0;0;0;0;0;0;0;0;0;0;0;0;0;0;0;0;0;0;-48.977015;-21.131381;1000.0
298;Ford Ka 1.0 (Flex) 2012;Flex; 23.500,00;2012;112.000;Prata;0;São Paulo;0;0;0;0;0;1;1;1;1;1;0;0;1;0;1;0;0;0;0;0;0;0;-46.63952;-23.532905;1000.0
299;Chevrolet Meriva Joy 1.4 (Flex) 2011;Flex; 28.900,00;2011;115.744;Preto;0;Novo Hamburgo;0;0;0;1;0;0;1;0;0;0;0;1;1;0;1;0;0;1;0;0;0;1;-51.132828;-29.687548;1400.0
300;Volkswagen Gol 1.0 TEC Trendline (Flex) 4p 2015;Flex; 37.900,00;2014;189.000;Prata;0;Natal;1;1;1;1;0;0;1;0;0;0;0;1;1;0;0;0;0;0;0;0;0;1;-35.198604;-5.793567;1000.0
301;Nissan Livina S 1.6 16V (flex) 2011;Flex; 25.890,00;2010;163.782;Prata;0;Santo André;1;0;1;1;0;0;1;0;0;1;0;0;1;0;0;0;0;1;0;0;1;0;-36.621339;-7.220157;1600.0
302;Peugeot 408 Allure 2.0 16V (Flex) 2013;Flex; 33.890,00;2013;128.000;Prata;0;Campinas;1;0;0;1;0;0;1;0;0;1;0;1;1;0;0;0;0;1;0;0;0;0;-47.06595;-22.905346;2000.0
303;Chevrolet Corsa Sedan Premium 1.4 (Flex) 2010;Flex; 28.900,00;2009;300;Preto;0;São José do Rio Preto;0;0;0;1;0;0;1;0;0;0;0;1;1;0;0;0;0;1;0;0;0;0;-49.375767;-20.811289;1400.0
304;Ford Fiesta Sedan 1.6 Rocam (Flex) 2012;Flex; 33.500,00;2011;111.111;Prata;0;Jales;0;0;0;1;0;1;1;0;0;1;0;1;1;0;0;0;0;0;0;0;0;0;-50.549442;-20.267227;1600.0
305;Fiat Uno Sporting 1.4 8V (Flex) 4p 2013;Flex; 36.900,00;2012;97.000;Branco;0;Diadema;0;0;0;0;0;1;0;0;0;1;0;1;0;0;0;0;0;0;0;0;0;1;-46.62052;-23.681347;1400.0
306;Fiat Uno Way 1.4 8V (Flex) 4p 2013;Flex; 35.000,00;2012;109.001;Branco;0;Marechal Cândido Rondon;0;0;0;0;0;0;0;0;0;0;0;0;0;0;0;0;0;0;0;0;0;0;-54.056115;-24.557891;1400.0
307;Hyundai HB20 1.0 Evolution 2021;Flex; 63.190,00;2020;67.278;Branco;0;Ponta Grossa;1;0;1;1;1;0;0;0;1;0;0;1;1;0;1;0;1;0;0;0;0;0;-50.166787;-25.091622;1000.0
308;Ford Fiesta Sedan 1.6 (Flex) 2010;Flex; 26.900,00;2009;200.000;Preto;0;Brasília;0;0;0;1;0;0;1;0;0;0;0;1;1;0;0;0;0;0;0;0;0;0;-47.929657;-15.779522;1600.0
309;Fiat Idea ELX 1.4 (Flex) 2010;Flex; 29.900,00;2009;173.000;Prata;0;São Paulo;0;0;0;1;0;1;1;0;0;1;0;1;0;0;1;0;0;0;0;0;0;1;-46.63952;-23.532905;1400.0
310;Citroën C3 GLX 1.4 8V (flex) 2012;Flex; 28.890,00;2012;116.000;Prata;0;São Paulo;0;0;0;1;0;1;1;0;0;1;0;1;0;0;0;0;0;1;0;0;0;1;-46.63952;-23.532905;1400.0
311;Ford Fiesta Hatch 1.0 (Flex) 2011;Flex; 25.900,00;2010;180.000;Preto;1;Sertãozinho;0;0;0;0;0;0;0;1;0;0;0;0;0;1;0;0;0;0;0;0;0;0;-47.987496;-21.131596;1000.0
312;Ford Fiesta Sedan 1.6 Rocam (Flex) 2013;Flex; 32.990,00;2012;140.297;Preto;0;Brasília;1;0;1;1;0;1;1;0;1;1;0;1;1;0;1;0;0;0;0;0;0;0;-47.929657;-15.779522;1600.0
313;Volkswagen Gol 1.0 TEC (Flex) 4p 2014;Flex; 38.900,00;2013;71.632;Vermelho;0;Belo Horizonte;0;0;0;0;0;0;1;1;0;1;0;1;0;0;0;0;0;0;0;0;0;1;-43.926572;-19.910183;1000.0
314;Volkswagen Gol 1.0 VHT (Rock in Rio) 2012;Flex; 33.990,00;2011;132.182;Vermelho;0;Campo Grande;0;0;0;1;0;0;1;0;0;0;0;1;0;0;0;0;0;0;0;0;0;0;-54.629463;-20.448589;1000.0
315;Peugeot 307 Sedan Presence 1.6 16V (flex) 2011;Flex; 27.900,00;2010;130.000;Vermelho;0;Curitiba;1;1;1;1;0;1;1;1;0;1;0;1;0;0;1;0;0;1;1;0;0;1;-49.264622;-25.419547;1600.0
316;Chevrolet Meriva Maxx 1.4 (Flex) 2010;Flex; 31.900,00;2009;184.328;Preto;0;Curitiba;0;0;0;1;0;0;1;0;0;0;0;1;0;0;0;0;0;1;0;0;0;1;-49.264622;-25.419547;1400.0
317;Peugeot 208 Active 1.5 8V (Flex) 2015;Flex; 38.900,00;2014;141.000;Vermelho;0;Ponta Grossa;0;0;0;1;0;0;1;0;0;0;0;1;0;0;0;0;0;0;0;0;0;1;-50.166787;-25.091622;1500.0
318;Chevrolet Sonic Sedan LTZ (Aut) 2012;Flex; 38.990,00;2012;164.000;Prata;1;Campinas;1;1;1;1;0;1;1;1;1;1;0;1;1;1;0;0;0;1;0;0;1;0;-47.06595;-22.905346;
319;Chevrolet Celta LT 1.0 (Flex) 2014;Flex; 35.900,00;2013;171.573;Vermelho;0;Manaus;0;0;0;1;0;0;1;0;0;1;0;0;1;0;0;0;0;0;0;0;1;0;-60.02123;-3.118662;1000.0
320;Fiat Punto Essence 1.6 16V (Flex) 2013;Flex; 37.900,00;2013;144.601;Branco;0;Hortolândia;1;1;1;1;0;0;1;1;1;1;0;1;1;0;0;0;0;1;0;0;0;1;-47.214259;-22.852854;1600.0
321;Ford New Fiesta Sedan 1.6 SE PowerShift (Flex) 2014;Flex; 37.900,00;2013;137.276;Branco;1;Osório;1;1;1;1;0;1;1;1;1;1;0;1;1;1;0;0;1;1;0;0;0;0;-50.266713;-29.888089;1600.0
322;Volkswagen Gol 1.0 (G5) (Flex) 2012;Flex; 28.900,00;2011;131.000;Branco;0;Barra Mansa;0;0;0;1;0;0;1;0;0;0;0;0;0;0;0;0;0;0;0;0;0;1;-44.175241;-22.548084;1000.0
323;Volkswagen Fox 1.6 VHT (Flex) 2013;Flex; 38.900,00;2013;104.000;Prata;0;Uberlândia;1;0;1;1;0;0;1;0;0;0;0;1;0;0;0;0;0;0;0;0;0;1;-48.274934;-18.914142;1600.0
324;Volkswagen Voyage 1.0 TEC City (Flex) 2014;Flex; 37.890,00;2013;114.000;Cinza;0;Mogi Guaçu;1;1;1;1;0;0;1;0;0;1;0;1;1;0;1;0;0;0;0;0;0;0;-46.9428;-22.367453;1000.0
325;Fiat Palio Attractive 1.4 8V (Flex) 2012;Flex; 36.900,00;2011;110.000;Cinza;0;Goiânia;1;0;1;1;0;0;0;0;0;0;0;1;1;0;1;0;0;0;0;0;0;1;-49.264346;-16.686439;1400.0
326;Volkswagen Fox 1.6 VHT Prime (Flex) 2013;Flex; 38.900,00;2012;100.000;Branco;0;Joinville;1;1;1;0;0;1;0;0;0;0;0;1;0;0;0;0;0;0;0;0;0;1;-48.848675;-26.304497;1600.0
327;Chevrolet Meriva Joy 1.8 (Flex) 2008;Flex; 26.999,00;2007;135.000;Prata;0;São Paulo;1;0;1;1;0;1;0;1;1;1;0;1;1;0;0;0;0;0;0;0;0;1;-46.63952;-23.532905;1800.0
328;Ford Fiesta Sedan 1.6 Rocam (Flex) 2012;Flex; 34.900,00;2011;224.000;Preto;0;Lucas do Rio Verde;0;0;0;1;0;0;1;0;0;1;0;1;1;0;0;0;0;0;0;0;0;0;-55.904202;-13.058796;1600.0
329;Volkswagen Fox 1.0 8V (Flex) 4p 2010;Flex; 29.800,00;2009;138.889;Preto;0;Cascavel;0;0;0;0;0;0;1;0;0;1;0;0;1;0;0;0;0;0;0;0;0;1;-53.459005;-24.957301;1000.0
330;Nissan Versa 1.6 16V SV 2014;Flex; 36.900,00;2013;201.741;Cinza;0;São Paulo;1;0;1;1;1;0;0;1;0;1;0;0;1;0;1;0;0;0;0;0;0;0;-46.63952;-23.532905;1600.0
331;Fiat Weekend Attractive 1.4 Fire (Flex) 2016;Flex; 36.900,00;2015;135.833;Prata;0;Goiânia;1;1;1;1;0;1;1;0;0;0;0;1;1;0;1;0;0;1;0;0;0;1;-49.264346;-16.686439;1400.0
332;Volkswagen Gol 1.0 TEC City (Flex) 4p 2014;Flex; 34.900,00;2013;149.000;Branco;0;Sorocaba;0;0;0;1;0;1;1;0;0;1;0;1;0;0;0;0;0;0;0;0;0;1;-47.445073;-23.496886;1000.0
333;Volkswagen SpaceFox Sportline 1.6 8V (Flex) 2011;Flex; 36.900,00;2010;167.815;Prata;0;Maringá;0;0;0;1;0;0;1;0;1;1;0;1;1;0;1;0;0;1;0;1;0;1;-51.933298;-23.420545;1600.0
334;Chevrolet Celta LT 1.0 (Flex) 2012;Flex; 29.900,00;2011;150.000;Prata;0;Indaiatuba;0;0;0;1;0;0;1;0;0;1;0;1;0;0;0;0;0;0;0;0;0;1;-47.210093;-23.081591;1000.0
335;Fiat Palio Fire 1.0 8V (Flex) 4p 2010;Flex; 25.699,00;2009;129.141;Vermelho;0;Porto Alegre;0;0;0;0;0;0;0;0;0;0;0;0;0;0;0;0;0;0;0;0;0;0;-51.206533;-30.031771;1000.0
336;Ford Fiesta Hatch Rocam 1.6 (Flex) 2013;Flex; 32.000,00;2012;90.000;Preto;0;Iguatu;0;0;0;1;0;0;1;0;0;1;0;1;1;0;0;0;0;0;0;0;0;1;-39.28915;-6.362806;1600.0
337;Renault Sandero Expression 1.0 16V (flex) 2014;Flex; 34.900,00;2013;95.263;Branco;0;Curitiba;0;0;0;0;0;0;0;0;0;0;0;0;0;0;0;0;0;0;0;0;0;0;-49.264622;-25.419547;1000.0
338;Fiat Siena EL 1.0 8V (Flex) 2010;Flex; 27.900,00;2010;167.000;Preto;0;Matão;0;0;0;0;0;0;0;0;0;0;0;1;0;0;0;0;0;0;0;0;0;0;-48.363968;-21.602511;1000.0
339;Chevrolet Celta LT 1.0 (Flex) 2013;Flex; 29.900,00;2012;151.000;Prata;0;São Paulo;0;0;0;0;0;0;1;0;0;1;0;1;0;0;0;0;0;0;0;0;0;1;-46.63952;-23.532905;1000.0
340;Volkswagen Gol 1.6 (G5) (Flex) 2013;Flex; 38.000,00;2012;194.000;Preto;0;Sombrio;1;1;1;0;0;0;0;0;0;1;0;1;0;0;0;0;0;0;0;0;0;1;-49.632776;-29.107985;1600.0
341;Fiat Mobi 1.0 Like 2021;Flex; 52.520,00;2021;40.185;Branco;0;Itajaí;1;1;0;1;0;0;0;0;0;1;0;1;0;0;0;0;0;0;0;0;0;1;-48.670475;-26.910097;1000.0
342;Volkswagen Fox 1.0 VHT (Flex) 4p 2012;Flex; 34.990,00;2011;80.000;Vermelho;0;Guarulhos;1;0;0;1;0;0;1;0;0;1;0;1;1;0;1;0;0;1;0;0;0;1;-46.533347;-23.453758;1000.0
343;Fiat Palio Attractive 1.0 Evo (Flex) 2015;Flex; 36.900,00;2014;155.028;Branco;0;Curitiba;1;0;1;1;0;0;1;0;0;1;0;0;1;0;0;0;0;0;0;0;0;0;-49.264622;-25.419547;1000.0
344;Fiat Siena Fire 1.0 8V (Flex) 2012;Flex; 28.900,00;2011;115.000;Vermelho;0;Joinville;0;0;0;1;0;0;0;0;0;0;0;1;0;0;0;0;0;0;0;0;0;0;-48.848675;-26.304497;1000.0
345;Ford Fiesta Hatch 1.0 (Flex) 2012;Flex; 26.990,00;2012;102.000;Prata;0;Porto Velho;0;0;0;1;0;0;1;0;0;1;0;1;1;0;0;0;0;0;0;1;0;1;-63.899902;-8.760772;1000.0
346;Chevrolet Agile LTZ 1.4 8V (Flex) 2014;Flex; 36.900,00;2013;61.929;Preto;0;São João de Meriti;1;1;1;1;0;0;1;1;1;1;0;1;0;0;0;0;0;1;0;0;0;1;-43.37292;-22.805776;1400.0
347;Volkswagen Voyage Trend 1.6 (Flex) 2010;Flex; 29.990,00;2009;116.405;Preto;0;Uberlândia;1;0;1;1;0;0;1;0;0;1;0;0;1;0;0;0;0;0;0;0;0;0;-48.274934;-18.914142;1600.0
348;Volkswagen Gol 1.6 VHT City (Flex) 4p 2014;Flex; 37.990,00;2014;85.000;Prata;0;Campinas;0;0;0;1;0;0;1;1;0;1;0;1;0;0;0;0;0;0;0;0;0;1;-47.06595;-22.905346;1600.0
349;Ford Fiesta Hatch Rocam 1.6 (Flex) 2013;Flex; 33.900,00;2013;116.000;Vermelho;0;Ribeirão Preto;0;0;0;1;0;0;1;0;0;1;0;1;1;0;0;0;0;0;0;0;0;1;-47.809875;-21.169923;1600.0
350;Citroën C3 GLX 1.4 8V (flex) 2012;Flex; 29.903,00;2011;122.000;Branco;0;São José dos Campos;0;0;0;0;0;0;0;0;0;0;0;0;0;0;0;0;0;0;0;0;0;0;-45.884115;-23.189554;1400.0
351;Ford Fiesta Sedan SE 1.6 Rocam (Flex) 2014;Flex; 35.900,00;2013;131.000;Branco;0;Içara;1;0;1;1;0;0;0;0;0;1;0;1;1;0;1;0;0;0;0;0;0;0;-49.308654;-28.713206;1600.0
352;Citroën C3 GLX 1.4 8V (flex) 2009;Flex; 25.900,00;2009;132.000;Preto;0;Farroupilha;0;0;0;1;1;0;1;0;1;1;0;1;1;0;0;0;0;1;0;0;0;1;-51.341853;-29.222689;1400.0
353;Chevrolet Vectra Elite 2.4 (Flex) (Aut) 2009;Flex; 36.900,00;2008;192.000;Cinza;1;São José do Rio Preto;1;0;0;1;0;0;1;1;0;1;0;1;1;1;0;0;0;1;0;0;1;0;-49.375767;-20.811289;2400.0
354;Volkswagen Voyage (G6) 1.0 TEC Total Flex 2013;Flex; 35.890,00;2013;100.000;Cinza;0;Campinas;1;0;0;0;0;0;0;0;0;1;0;1;0;0;1;0;0;0;0;0;0;0;-47.06595;-22.905346;1000.0
355;Fiat Uno Way 1.0 8V (Flex) 4p 2014;Flex; 35.900,00;2013;97.000;Prata;0;Brasília;1;1;1;1;0;0;0;0;0;0;0;0;0;0;0;0;0;0;0;0;0;0;-47.929657;-15.779522;1000.0
356;Volkswagen Polo Sedan 1.6 8V (Flex) 2011;Flex; 35.900,00;2010;154.000;Prata;0;Palhoça;0;0;0;1;0;0;0;0;0;0;0;0;0;0;0;0;0;0;0;0;0;0;-48.669661;-27.645518;1600.0
357;Renault Clio Expression 1.0 16V (Flex) 2015;Flex; 34.990,00;2014;80.000;Prata;0;São Paulo;1;1;1;1;0;1;1;1;0;1;0;1;1;0;0;0;0;1;0;1;0;1;-46.63952;-23.532905;1000.0
358;Citroën Aircross Exclusive 1.6 16V (flex) 2011;Flex; 34.990,00;2010;129.000;Cinza;0;Campinas;0;1;0;0;1;0;1;0;0;0;0;1;0;0;0;0;0;1;0;0;1;1;-47.06595;-22.905346;1600.0
359;Volkswagen Up! 1.0 12v E-Flex take up! 4p 2015;Flex; 37.900,00;2014;139.388;Vermelho;0;Brasília;1;1;1;0;1;0;0;0;0;0;0;1;1;0;0;0;0;0;0;0;0;1;-47.929657;-15.779522;1000.0
360;Chevrolet Classic LS VHC E 1.0 (Flex) 2012;Flex; 27.000,00;2011;150.913;Preto;0;Catanduva;0;0;0;0;0;0;1;0;0;0;0;0;0;0;0;0;0;0;0;0;0;0;-48.977015;-21.131381;1000.0
361;Ford Focus Hatch GL 1.6 8V (Flex) 2009;Flex; 25.900,00;2008;157.000;Prata;0;São Paulo;0;0;0;1;0;1;1;0;0;1;0;1;0;0;1;0;0;1;0;0;0;1;-46.63952;-23.532905;1600.0
362;Fiat Palio Attractive 1.0 8V (Flex) 2013;Flex; 32.890,00;2012;90.000;Vermelho;0;Belo Horizonte;0;0;0;0;0;0;1;0;0;1;0;1;0;0;0;0;0;0;0;0;0;1;-43.926572;-19.910183;1000.0
363;Fiat Palio Attractive 1.4 Evo (Flex) 2016;Flex; 36.900,00;2016;56.254;Prata;0;Rio de Janeiro;1;0;1;1;1;0;1;1;0;1;0;1;0;0;0;0;0;0;0;0;0;1;-43.200295;-22.912897;1400.0
364;Volkswagen CrossFox 1.6 (Flex) 2008;Flex; 29.900,00;2007;109.790;Preto;0;Quirinópolis;0;0;0;0;0;0;0;0;0;0;0;1;0;0;1;0;0;0;0;0;0;1;-50.454698;-18.447186;1600.0
365;Volkswagen Fox 1.0 VHT (Flex) 4p 2012;Flex; 32.850,00;2011;87.000;Preto;0;São Paulo;0;0;0;1;0;0;1;1;1;0;0;1;1;0;1;0;0;0;0;0;0;1;-46.63952;-23.532905;1000.0
366;Volkswagen Fox 1.0 8V (Flex) 4p 2011;Flex; 31.900,00;2011;111.111;Preto;0;Dourados;1;1;0;1;0;0;0;0;0;0;0;0;0;0;0;0;0;0;0;0;0;0;-54.812043;-22.223099;1000.0
367;Volkswagen Fox 1.0 8V (Flex) 4p 2011;Flex; 33.900,00;2010;100.000;Cinza;0;Londrina;0;0;0;1;0;0;1;0;0;0;0;0;0;0;1;0;0;1;0;0;0;1;-51.1691;-23.303975;1000.0
368;Fiat Uno Way 1.0 8V (Flex) 2p 2012;Flex; 28.900,00;2011;102.716;Preto;0;Curitiba;0;0;0;0;0;0;1;0;0;0;0;1;0;0;0;0;0;0;0;0;0;1;-49.264622;-25.419547;1000.0
369;Ford Fiesta Sedan 1.6 Rocam (Flex) 2012;Flex; 34.990,00;2011;89.000;Prata;0;Brasília;0;0;0;1;0;0;1;0;0;1;0;1;1;0;0;0;0;0;0;0;0;0;-47.929657;-15.779522;1600.0
370;Fiat Palio Fire 1.0 8V (Flex) 2p 2014;Flex; 28.900,00;2014;92.000;Preto;0;Porto Alegre;1;1;1;1;0;0;1;0;1;0;0;0;0;0;0;0;0;0;0;0;0;0;-51.206533;-30.031771;1000.0
371;Volkswagen Gol 1.6 (G5) (Flex) 2012;Flex; 32.900,00;2011;300;Branco;0;Toledo;0;0;0;1;0;0;1;0;0;0;0;0;1;0;0;0;0;0;0;0;0;0;-46.372772;-22.742133;1600.0
372;Volkswagen T-Cross 1.0 200 TSI Comfortline (Aut) 2022;Flex; 119.990,00;2022;32.868;Preto;1;São Carlos;1;1;1;1;1;0;0;0;1;0;0;1;1;1;1;0;0;1;0;1;0;0;-53.003704;-27.079757;1000.0
373;Chevrolet Corsa Hatch Maxx 1.4 (Flex) 2011;Flex; 26.900,00;2010;140.361;Cinza;0;São Paulo;0;0;0;0;0;1;1;0;0;1;0;1;0;0;1;0;0;0;0;0;0;1;-46.63952;-23.532905;1400.0
374;Fiat Palio Attractive 1.0 8V (Flex) 2014;MultiFlex (Alc; 34.800,00;2014;107.000;Cinza;0;Rio de Janeiro;1;1;1;1;0;1;1;0;1;1;0;1;0;0;1;0;0;0;0;0;0;1;-43.200295;-22.912897;1000.0
375;Volkswagen SpaceFox Comfortline 1.6 8V (Flex) 2008;Flex; 32.900,00;2007;133.373;Preto;1;São Paulo;0;0;0;1;0;0;1;0;0;1;0;0;0;1;0;0;0;0;0;0;1;0;-46.63952;-23.532905;1600.0
376;Volkswagen Fox Prime 1.6 8V (Flex) 4p 2010;Flex; 36.900,00;2010;119.000;Preto;0;São José dos Campos;0;0;0;1;0;0;1;0;0;1;0;0;0;0;0;0;0;0;0;0;0;0;-45.884115;-23.189554;1600.0
377;Fiat Palio ELX 1.4 (Flex) 2010;Flex; 32.500,00;2010;124.800;Bege;0;Caxias do Sul;0;0;0;1;0;1;1;0;1;1;0;1;1;0;0;0;0;0;0;0;0;1;-51.179161;-29.162905;1400.0
378;Volkswagen Fox 1.0 VHT (Flex) 4p 2012;Flex; 31.990,00;2011;108.000;Branco;0;Piracicaba;0;0;0;0;0;0;0;0;0;0;0;1;0;0;1;0;0;0;0;0;0;1;-47.647612;-22.733801;1000.0
379;Fiat Idea Essence Italia 1.6 16V (Flex) 2012;Flex; 33.900,00;2012;155.000;Prata;0;São José do Rio Preto;1;1;1;1;0;1;1;0;0;0;0;1;1;0;0;0;0;1;0;0;1;1;-49.375767;-20.811289;1600.0
380;Chevrolet Classic LS 1.0 VHCE (Flex) 2016;Flex; 36.900,00;2016;120.000;Preto;0;Campo Grande;1;1;1;1;0;0;0;0;0;0;0;1;0;0;0;0;0;0;0;0;0;0;-54.629463;-20.448589;1000.0
381;Nissan March 1.6 16V SV (Flex) 2014;Flex; 38.990,00;2013;98.000;Prata;0;Campo Grande;1;1;1;1;1;0;1;1;0;0;0;1;0;0;0;0;0;0;0;0;0;1;-36.792608;-9.955423;1600.0
382;Volkswagen Fox 1.0 8V (Flex) 4p 2010;Flex; 28.900,00;2010;194.793;Prata;0;Ribeirão Pires;0;0;0;0;0;0;0;0;0;1;0;1;1;0;1;0;0;0;0;0;0;1;-46.405805;-23.706669;1000.0
383;Fiat Punto Essence 1.6 16V (Flex) 2011;Flex; 33.800,00;2011;111.111;Preto;0;Limeira;0;0;1;1;0;0;1;0;0;1;0;0;1;0;0;0;0;0;0;0;0;0;-47.396987;-22.56605;1600.0
384;Renault Sandero Expression 1.0 16V (flex) 2011;Flex; 26.900,00;2010;175.575;Prata;0;São Paulo;1;1;1;1;0;0;1;0;0;0;0;1;1;0;0;0;0;0;0;0;0;1;-46.63952;-23.532905;1000.0
385;Fiat Uno Vivace 1.0 8V (Flex) 4p 2012;Flex; 27.900,00;2011;102.000;Prata;0;Praia Grande;0;0;0;0;0;0;0;0;0;0;0;0;0;0;0;0;0;0;0;0;0;0;-46.412057;-24.008378;1000.0
386;Chrysler PT Cruiser Classic 2.4 16V 2009;Gasolina; 37.990,00;2008;89.000;Preto;1;São Bernardo do Campo;1;1;0;1;0;0;1;0;0;1;0;1;1;1;0;0;0;0;0;0;0;0;-46.564617;-23.691412;2400.0
387;Fiat Mobi 1.0 Like 2023;Flex; 57.600,00;2022;32.511;Prata;0;João Pessoa;0;1;1;1;0;1;1;0;0;0;0;0;0;0;0;0;0;0;0;0;0;0;-34.864121;-7.11509;1000.0
388;Ford Ka 1.0 (Flex) 2013;Flex; 27.500,00;2012;91.000;Vermelho;0;Araraquara;0;0;0;1;0;0;1;0;0;1;0;1;1;0;0;0;0;0;0;0;0;1;-48.178014;-21.784511;1000.0
389;Ford Fiesta Sedan 1.6 Rocam (Flex) 2013;Flex; 34.900,00;2013;86.337;Branco;0;Ariquemes;1;1;1;1;0;0;1;0;1;1;0;0;1;0;1;0;0;0;0;1;0;1;-63.032516;-9.905711;1600.0
390;Ford Fiesta Hatch S Rocam 1.0 (Flex) 2014;Flex; 29.900,00;2013;137.681;Preto;0;Carapicuíba;1;1;1;0;0;0;1;0;0;1;0;1;0;0;0;0;0;0;0;0;0;1;-46.840676;-23.523471;1000.0
391;Renault Sandero Expression 1.0 16V (Flex) 2016;Flex; 37.800,00;2015;89.000;Prata;0;São José do Rio Preto;1;0;1;0;0;0;1;0;0;1;0;1;0;0;0;0;0;0;0;0;0;0;-49.375767;-20.811289;1000.0
392;Chevrolet Prisma Maxx 1.4 (Flex) 2010;Flex; 26.890,00;2009;211.500;Preto;0;Santo André;0;0;0;1;0;0;1;0;1;1;0;1;0;0;0;0;0;0;0;0;0;0;-46.543154;-23.67373;1400.0
393;Volkswagen Voyage 1.6 2022;Flex; 64.000,00;2021;31.623;Branco;0;Juazeiro do Norte;0;1;0;1;0;0;1;0;0;0;0;1;0;0;1;0;0;0;0;0;0;0;-39.307593;-7.196207;1600.0
394;Fiat Palio ELX 1.4 (Flex) 2008;Flex; 29.900,00;2007;118.000;Prata;0;Ribeirão Preto;1;0;0;1;0;0;0;0;0;0;0;0;0;0;0;0;0;1;0;0;0;0;-47.809875;-21.169923;1400.0
395;Nissan March 1.0 16V S (Flex) 2014;Flex; 35.800,00;2013;155.466;Preto;0;Cascavel;0;0;0;1;1;1;1;0;0;1;0;0;1;0;0;0;0;0;0;0;0;1;-53.459005;-24.957301;1000.0
396;Ford Fiesta Sedan SE 1.6 Rocam (Flex) 2014;Flex; 36.800,00;2013;82.028;Prata;0;Joinville;1;1;0;1;0;0;1;0;0;1;0;1;0;0;1;0;0;0;0;0;0;0;-48.848675;-26.304497;1600.0
397;Volkswagen Fox 1.6 VHT (Flex) 2012;Flex; 38.900,00;2012;171.120;Prata;1;Belo Horizonte;0;0;0;1;0;0;1;0;0;1;0;1;1;1;1;0;0;1;0;0;0;1;-43.926572;-19.910183;1600.0
398;Fiat Siena EL 1.0 8V (Flex) 2011;Flex; 26.900,00;2010;230.000;Cinza;0;Joinville;0;1;0;1;0;0;0;1;1;0;0;1;0;0;0;0;0;0;0;0;0;0;-48.848675;-26.304497;1000.0
399;Nissan Livina S 1.8 16V (flex) (aut) 2014;Flex; 38.890,00;2014;100.020;Prata;1;São Paulo;1;1;1;1;0;1;1;1;0;1;0;1;1;1;0;0;0;1;0;0;0;1;-46.63952;-23.532905;1800.0
400;Ford Fiesta Sedan 1.6 Rocam (Flex) 2012;Flex; 29.900,00;2011;172.400;Prata;0;Curitiba;0;0;0;1;0;0;1;0;0;1;0;1;1;0;0;0;0;0;0;0;0;0;-49.264622;-25.419547;1600.0
401;Volkswagen Fox 1.0 VHT (Flex) 4p 2013;Flex; 33.900,00;2012;161.144;Vermelho;0;Brasília;0;0;0;0;0;0;1;1;0;1;0;0;0;0;0;0;0;0;0;0;0;1;-47.929657;-15.779522;1000.0
402;Volkswagen Voyage 1.0 Total Flex 2011;Flex; 28.900,00;2010;90.758;Prata;0;Rio de Janeiro;0;0;0;1;1;0;1;0;0;1;0;1;1;0;0;0;0;0;0;0;0;0;-43.200295;-22.912897;1000.0
403;Fiat Palio Fire 1.0 8V (Flex) 2p 2016;Flex; 33.900,00;2016;78.000;Branco;0;São Paulo;1;1;1;1;0;0;1;0;0;1;0;0;0;0;0;0;0;0;0;0;0;1;-46.63952;-23.532905;1000.0
404;Renault Sandero Expression 1.6 8V (flex) 2012;Flex; 29.800,00;2012;221.568;Prata;0;São Bernardo do Campo;0;0;0;1;0;0;1;0;0;1;0;1;1;0;0;0;0;0;0;0;0;1;-46.564617;-23.691412;1600.0
405;Fiat Uno Mille Fire Economy 1.0 (Flex) 4p 2012;Flex; 25.900,00;2012;122.000;Azul;0;Rio Branco do Sul;0;0;0;0;0;0;0;0;0;0;0;0;0;0;0;0;0;0;0;0;0;0;-49.311546;-25.189189;1000.0
406;Volkswagen SpaceFox 1.6 8V (Flex) 2011;Flex; 32.990,00;2010;148.260;Prata;1;São Leopoldo;1;1;1;1;0;0;1;0;0;0;0;0;0;1;0;0;0;0;0;0;1;1;-51.149773;-29.754494;1600.0
407;Fiat Siena Fire 1.0 8V (Flex) 2010;Flex; 25.990,00;2009;187.237;Prata;0;Campinas;0;0;0;1;0;0;1;1;1;1;0;1;1;0;0;0;0;0;0;0;0;0;-47.06595;-22.905346;1000.0
408;Volkswagen Gol 1.6 (G5) (Flex) 2012;Flex; 35.900,00;2012;90.549;Preto;0;São Paulo;0;0;0;1;0;0;1;0;0;1;0;1;1;0;0;0;0;0;0;0;0;1;-46.63952;-23.532905;1600.0
409;Citroën C3 Tendance 1.5 8V (Flex) 2014;Flex; 38.900,00;2013;86.000;Preto;0;Maringá;0;0;0;0;0;0;0;0;0;0;0;0;0;0;0;0;0;0;0;0;0;0;-51.933298;-23.420545;1500.0
410;Nissan March 1.0 16V S (Flex) 2014;Flex; 33.500,00;2013;110.296;Branco;0;São Paulo;0;0;0;1;0;0;1;0;0;1;0;1;1;0;0;0;0;1;0;0;0;1;-46.63952;-23.532905;1000.0
411;Chevrolet Astra Hatch Advantage 2.0 (Flex) 2010;Flex; 35.900,00;2009;108.000;Preto;0;Catanduva;1;1;1;1;0;1;1;0;1;1;0;1;1;0;1;0;0;1;0;0;0;1;-48.977015;-21.131381;2000.0
412;Ford EcoSport Ecosport XLT 2.0 16V (Flex) 2009;Flex; 36.900,00;2009;169.000;Prata;0;Catanduva;1;0;1;1;0;1;1;1;0;1;0;1;1;0;0;0;0;1;0;0;0;1;-48.977015;-21.131381;2000.0
413;Volkswagen Gol 1.0 TEC (Flex) 4p 2015;Flex; 37.900,00;2014;157.111;Prata;0;Brasília;0;0;0;0;0;0;0;0;0;0;0;0;0;0;0;0;0;0;0;0;0;0;-47.929657;-15.779522;1000.0
414;Fiat Uno Vivace 1.0 8V (Flex) 4p 2015;Flex; 35.900,00;2015;110.195;Prata;0;Cuiabá;1;1;1;1;0;0;1;0;0;1;0;0;0;0;0;0;0;0;0;0;0;0;-56.097397;-15.600979;1000.0
415;Fiat Palio Attractive 1.4 8V (Flex) 2013;Flex; 36.990,00;2012;162.761;Preto;0;Campo Grande;1;1;1;1;0;0;1;0;0;0;0;1;0;0;0;0;0;0;0;0;0;0;-37.310572;-5.8536;1400.0
416;Nissan Grand Livina SL 1.8 16V (flex) (aut) 2011;Flex; 38.890,00;2010;134.675;Prata;1;Osasco;1;1;1;1;0;0;1;0;0;1;0;1;1;1;1;0;0;1;0;0;1;1;-46.791555;-23.53239;1800.0
417;Volkswagen SpaceFox 1.6 8V Trend (Flex) 2012;Flex; 34.900,00;2012;72.000;Preto;0;Rio de Janeiro;0;0;0;1;0;1;1;0;0;1;0;0;0;0;0;0;0;1;0;0;0;1;-43.200295;-22.912897;1600.0
418;Volkswagen Fox Prime 1.6 8V (Flex) 2011;Flex; 34.900,00;2010;90.000;Prata;0;Dourados;1;1;1;0;0;1;0;0;0;0;0;1;0;0;1;0;0;0;0;0;0;1;-54.812043;-22.223099;1600.0
419;Fiat Palio ELX 1.0 (Flex) 4p 2011;Flex; 27.590,00;2010;161.567;Cinza;0;Osasco;0;0;0;0;0;0;1;0;0;0;0;1;1;0;0;0;0;0;0;0;0;1;-46.791555;-23.53239;1000.0
420;Fiat Grand Siena Tetrafuel 1.4 8V 2016;Flex; 38.000,00;2015;184.589;Branco;0;Curitiba;1;1;1;1;0;0;1;0;0;0;0;1;1;0;0;0;0;0;0;0;0;0;-49.264622;-25.419547;1400.0
421;Renault Sandero Expression 1.6 8V (flex) 2011;Flex; 28.900,00;2010;210.200;Prata;0;Três Lagoas;1;0;0;0;0;0;0;0;1;1;0;1;1;0;1;0;0;0;0;0;0;1;-51.700731;-20.784853;1600.0
422;Chevrolet Celta LT 1.0 (Flex) 2012;Flex; 28.900,00;2011;95.000;Prata;0;Petrópolis;0;0;0;1;0;0;1;1;0;1;0;1;0;0;0;0;0;0;0;0;0;1;-43.192613;-22.519963;1000.0
423;Chevrolet Corsa Hatch Maxx 1.4 (Flex) 2012;Flex; 33.490,00;2012;68.590;Prata;0;Guarulhos;1;0;1;0;0;0;1;0;0;1;0;0;1;0;1;0;0;0;0;0;0;1;-46.533347;-23.453758;1400.0
424;Chevrolet Celta LT 1.0 (Flex) 2013;Flex; 29.990,00;2012;144.000;Branco;0;Rio de Janeiro;0;0;0;1;0;0;1;0;0;1;0;0;0;0;0;0;0;0;0;0;0;0;-43.200295;-22.912897;1000.0
425;Volkswagen Gol 1.0 (G5) (Flex) 2010;Flex; 29.900,00;2009;122.673;Prata;0;Santo André;0;0;0;1;0;0;1;0;1;1;0;1;1;0;0;0;0;0;0;0;0;1;-36.621339;-7.220157;1000.0
426;Honda Fit EX 1.5 16V 2008;Gasolina; 33.890,00;2007;250.000;Dourado;0;São Paulo;0;0;0;1;0;1;1;0;0;1;0;1;0;0;1;0;0;1;0;0;0;1;-46.63952;-23.532905;1500.0
427;Volkswagen Voyage 1.6 2022;Flex; 58.990,00;2021;74.966;Branco;0;Campinas;0;1;0;1;0;0;1;0;0;0;0;1;1;0;1;0;0;0;0;0;0;0;-47.06595;-22.905346;1600.0
428;Fiat Uno Vivace 1.0 8V (Flex) 4p 2015;Flex; 33.900,00;2015;127.000;Prata;0;Bauru;1;1;1;1;0;0;1;0;0;0;0;1;1;0;0;0;0;0;0;0;0;1;-49.087142;-22.324569;1000.0
429;Chevrolet Classic Life 1.0 VHCE (Flex) 2010;Flex; 21.900,00;2009;182.000;Bege;0;Mogi Guaçu;0;0;0;0;0;0;0;0;0;0;0;1;0;0;0;0;0;0;0;0;0;0;-46.9428;-22.367453;1000.0
430;Volkswagen Fox 1.0 VHT (Flex) 4p 2013;Flex; 37.800,00;2012;62.300;Branco;0;Bauru;0;0;0;1;0;0;1;0;0;0;0;1;1;0;1;0;0;1;0;0;0;1;-49.087142;-22.324569;1000.0
431;Fiat Idea Sporting 1.8 16V E.TorQ (Flex) 2011;MultiFlex (Alc; 32.900,00;2010;1.000;Vermelho;0;São João de Meriti;1;0;1;1;0;0;0;0;1;1;0;0;0;0;0;0;0;1;0;1;0;1;-43.37292;-22.805776;1800.0
432;Ford Fiesta Hatch SE Rocam 1.6 (Flex) 2014;Flex; 35.990,00;2013;106.495;Branco;0;Barretos;1;1;1;1;0;1;1;1;1;1;0;1;1;0;0;0;1;1;0;0;0;1;-48.569832;-20.553146;1600.0
433;Fiat Palio ELX 1.4 (Flex) 2009;Flex; 29.900,00;2009;184.215;Prata;0;Aparecida de Goiânia;0;0;0;1;0;1;1;0;1;0;0;0;1;0;1;0;0;0;0;1;0;0;-49.246856;-16.819804;1400.0
434;Fiat Palio Attractive 1.4 8V (Flex) 2013;Flex; 36.990,00;2012;162.761;Preto;0;Campo Grande;1;1;1;1;0;0;1;0;0;0;0;1;0;0;0;0;0;0;0;0;0;0;-36.792608;-9.955423;1400.0
435;Volkswagen Fox 1.0 VHT (Flex) 4p 2012;Flex; 36.000,00;2011;80.000;Preto;0;José Bonifácio;0;0;0;1;0;1;1;1;0;1;0;1;1;0;1;0;0;1;0;0;0;1;-49.689233;-21.055062;1000.0
436;Fiat Uno Drive 1.0 Firefly (Flex) 2018;Flex; 35.890,00;2018;111.111;Branco;0;Rio de Janeiro;0;0;0;0;0;0;0;0;0;0;0;0;0;0;0;0;0;0;0;0;0;0;-43.200295;-22.912897;1000.0
437;Fiat Uno Way 1.4 8V (Flex) 4p 2013;Flex; 35.000,00;2012;109.001;Branco;0;Paranavaí;0;0;0;0;0;0;0;0;0;0;0;0;0;0;0;0;0;0;0;0;0;0;-52.461724;-23.08165;1400.0
438;Volkswagen Fox Route 1.6 8V (Flex) 2009;Flex; 32.900,00;2008;98.000;Preto;0;São Paulo;0;0;0;1;0;0;1;1;0;1;0;1;0;0;1;0;0;0;0;0;0;1;-46.63952;-23.532905;1600.0
439;Ford Fiesta Hatch 1.6 (Flex) 2010;Flex; 29.900,00;2009;131.066;Preto;0;Contagem;0;0;0;1;0;0;1;0;0;1;0;1;1;0;0;0;0;0;0;0;0;1;-44.05392;-19.932079;1600.0
440;Peugeot 308 Allure 1.6 16v (Flex) 2013;Flex; 36.900,00;2012;129.000;Preto;0;Belo Horizonte;0;0;0;1;0;0;1;0;0;1;0;0;0;0;0;0;0;0;0;0;0;0;-43.926572;-19.910183;1600.0
441;Fiat Palio Fire 1.0 8V (Flex) 4p 2014;Flex; 29.990,00;2013;157.438;Prata;0;Gravataí;0;0;0;1;0;0;1;1;0;1;0;1;0;0;0;0;0;0;0;0;0;1;-50.986891;-29.941319;1000.0
442;Kia Picanto 1.0 (Flex) J318 2012;Flex; 34.900,00;2011;62.468;Prata;0;Rio de Janeiro;1;0;1;1;1;1;1;1;1;1;0;1;1;0;1;0;0;1;0;0;0;1;-43.200295;-22.912897;1000.0
443;Volkswagen Fox 1.0 VHT (Flex) 2p 2013;Flex; 34.900,00;2012;127.080;Preto;0;Aparecida de Goiânia;0;0;0;1;0;0;1;1;1;1;0;1;1;0;0;0;0;1;0;0;0;1;-49.246856;-16.819804;1000.0
444;Chevrolet Astra Hatch Advantage 2.0 (Flex) 2011;Flex; 35.900,00;2010;169.265;Prata;0;Toledo;0;0;0;1;0;0;1;0;0;0;0;0;1;0;0;0;0;0;0;0;0;0;-46.372772;-22.742133;2000.0
445;Chevrolet Agile LTZ 1.4 8V (Flex) 2013;Flex; 38.990,00;2012;92.000;Branco;0;Iperó;0;0;0;0;0;0;1;0;0;1;0;1;0;0;0;0;0;0;0;0;0;1;-47.692717;-23.351296;1400.0
446;Citroën C3 Tendance 1.5 8V (Flex) 2014;Flex; 38.900,00;2013;156.853;Preto;0;São Paulo;0;0;0;0;0;0;0;0;0;0;0;0;0;0;0;0;0;0;0;0;0;0;-46.63952;-23.532905;1500.0
447;Volkswagen Fox Prime 1.6 8V I-Motion (Flex) 2010;Flex; 33.900,00;2010;150.622;Prata;1;Jundiaí;0;0;0;1;0;0;1;1;0;1;0;1;1;1;1;0;0;0;0;0;0;1;-46.897358;-23.185218;1600.0
448;Citroën C3 Picasso GLX 1.6 16V (Flex) 2012;Flex; 35.900,00;2011;127.088;Prata;0;Praia Grande;1;1;1;1;0;0;1;1;0;1;0;0;1;0;0;0;0;0;0;0;0;0;-46.412057;-24.008378;1600.0
449;Ford EcoSport Ecosport XLT 1.6 (Flex) 2009;Flex; 35.000,00;2009;135.836;Prata;0;Barretos;1;0;1;1;0;1;1;1;0;1;0;1;0;0;0;0;0;1;0;0;0;1;-48.569832;-20.553146;1600.0
450;Chevrolet Agile LTZ 1.4 8V (Flex) 2010;Flex; 31.900,00;2010;237.000;Prata;0;Atibaia;1;0;1;0;0;0;0;0;1;1;0;1;0;0;0;0;0;0;0;0;0;1;-46.556262;-23.117059;1400.0
451;Renault Sandero Expression 1.0 16V (flex) 2013;Flex; 29.900,00;2012;97.000;Preto;0;Rio de Janeiro;0;0;0;1;0;0;1;1;0;1;0;1;1;0;1;0;0;0;0;0;0;1;-43.200295;-22.912897;1000.0
452;Citroën C3 Picasso GLX 1.5 8V (Flex) 2013;Flex; 38.900,00;2012;136.000;Prata;1;Campina Grande do Sul;0;0;0;0;0;0;0;0;0;0;0;0;0;1;0;0;0;0;0;0;0;0;-49.055096;-25.30439;1500.0
453;Nissan March 1.0 16V S (Flex) 2013;Flex; 35.900,00;2012;84.000;Cinza;0;Pilar do Sul;1;0;1;1;0;1;1;0;0;1;0;1;0;0;0;0;0;1;0;0;0;1;-47.722151;-23.807716;1000.0
454;Ford Fiesta Hatch Rocam 1.0 (Flex) 2013;Flex; 28.000,00;2012;90.000;Prata;0;Montes Claros;0;0;0;0;0;0;1;0;0;0;0;0;1;0;0;0;0;0;0;0;0;0;-43.857809;-16.728177;1000.0
455;Volkswagen Up! 1.0 12v E-Flex move up! 2p 2015;Flex; 35.900,00;2014;111.111;Branco;0;Uberlândia;1;1;1;1;0;0;0;0;0;0;0;1;0;0;0;0;0;0;0;0;0;1;-48.274934;-18.914142;1000.0
456;Chevrolet Celta LT 1.0 (Flex) 2013;Flex; 33.500,00;2012;110.000;Vermelho;0;Santo André;0;0;0;1;0;0;1;0;0;0;0;1;0;0;0;0;0;0;0;0;0;0;-36.621339;-7.220157;1000.0
457;Fiat Palio Fire 1.0 8V (Flex) 4p 2014;Flex; 29.990,00;2013;157.438;Prata;0;São Leopoldo;0;0;0;1;0;0;1;1;0;1;0;1;0;0;0;0;0;0;0;0;0;1;-51.149773;-29.754494;1000.0
458;Fiat Uno Way 1.4 8V (Flex) 4p 2013;Flex; 35.000,00;2012;109.001;Branco;0;Umuarama;0;0;0;0;0;0;0;0;0;0;0;0;0;0;0;0;0;0;0;0;0;0;-53.32011;-23.765634;1400.0
459;Toyota Etios Sedan XLS 1.5 (Flex) 2013;MultiFlex (Alc; 38.900,00;2013;133.000;Prata;0;Rio de Janeiro;0;0;0;0;0;0;0;0;0;0;0;0;0;0;0;0;0;0;0;0;0;0;-43.200295;-22.912897;1500.0
460;Fiat Idea ELX 1.8 (Flex) 2010;Flex; 27.900,00;2009;152.000;Cinza;0;Mogi das Cruzes;0;0;0;1;0;1;1;0;0;1;0;1;0;0;1;0;0;0;0;0;0;1;-46.18541;-23.52082;1800.0
461;Volkswagen Fox 1.0 8V (Flex) 4p 2011;Flex; 31.990,00;2010;121.000;Preto;0;Campinas;1;1;0;1;0;0;0;0;0;0;0;0;0;0;0;0;0;0;0;0;0;0;-47.06595;-22.905346;1000.0
462;Chevrolet Celta LT 1.0 (Flex) 2014;Flex; 32.000,00;2014;149.771;Preto;0;Rondonópolis;0;0;0;0;0;0;1;0;0;1;0;1;0;0;0;0;0;0;0;0;0;1;-54.637173;-16.467251;1000.0
463;Ford Fiesta Sedan 1.6 Rocam (Flex) 2012;Flex; 29.900,00;2012;156.000;Prata;0;Campinas;1;0;0;1;0;0;1;0;0;1;0;0;1;0;0;0;0;0;0;0;0;0;-47.06595;-22.905346;1600.0
464;Renault Megane Grand Tour Mégane Grand Tour Dynamique 1.6 16V (flex) 2011;Flex; 32.900,00;2011;89.524;Prata;0;São Paulo;1;1;1;1;0;1;1;1;1;1;0;1;1;0;1;0;0;1;0;0;0;1;-46.63952;-23.532905;1600.0
465;Fiat Uno Way 1.4 8V (Flex) 4p 2014;Flex; 37.900,00;2014;135.260;Branco;0;Belo Horizonte;1;1;1;1;0;1;1;0;0;1;0;1;0;0;0;0;0;0;0;0;0;1;-43.926572;-19.910183;1400.0
466;Fiat Mobi Evo Easy 1.0 (Flex) 2017;Flex; 37.990,00;2016;65.798;Branco;0;Blumenau;1;1;0;0;0;0;0;0;0;0;0;0;0;0;0;0;0;0;0;0;0;0;-49.070904;-26.915501;1000.0
467;Peugeot 207 Hatch XR 1.4 8V (flex) 4p 2012;Flex; 25.900,00;2012;76.800;Branco;0;Piracicaba;0;0;0;1;0;0;1;1;1;1;0;1;0;0;0;0;0;0;0;0;0;1;-47.647612;-22.733801;1400.0
468;Renault Sandero Expression 1.0 16V (Flex) 2015;Flex; 35.900,00;2014;60.000;Vermelho;0;Petrópolis;0;1;0;1;0;1;1;0;1;1;0;1;1;0;1;0;0;0;0;0;0;1;-43.192613;-22.519963;1000.0
469;Fiat Uno Vivace 1.0 8V (Flex) 4p 2013;Flex; 32.900,00;2012;116.306;Preto;0;Curitiba;1;0;1;1;0;0;1;1;1;1;0;1;0;0;0;0;0;0;0;0;0;1;-49.264622;-25.419547;1000.0
470;Volkswagen Fox 1.0 VHT (Flex) 2p 2013;Flex; 35.000,00;2013;98.139;Prata;0;Goiatuba;0;0;0;1;0;0;1;0;0;1;0;1;0;0;1;0;0;1;0;0;0;1;-49.365807;-18.010531;1000.0
471;Fiat Idea Adventure 1.8 Dualogic (Flex) 2010;Flex; 28.900,00;2010;129.830;Preto;1;Brasília;0;0;0;1;0;0;1;0;0;0;0;0;1;1;0;0;0;1;0;0;0;1;-47.929657;-15.779522;1800.0
472;Chevrolet Prisma Maxx 1.4 (Flex) 2011;Flex; 28.500,00;2010;135.590;Prata;0;Curitiba;0;0;0;0;0;0;0;0;0;0;0;1;1;0;0;0;0;0;0;0;0;0;-49.264622;-25.419547;1400.0
473;Volkswagen Voyage 1.0 Total Flex 2013;Flex; 34.900,00;2012;80.000;Branco;0;Joinville;0;0;0;0;0;0;0;0;0;1;0;1;0;0;0;0;0;0;0;0;0;0;-48.848675;-26.304497;1000.0
474;Hyundai Tucson GLS 2.0 16V (aut) 2009;Gasolina; 36.900,00;2008;99.000;Prata;1;São José dos Pinhais;0;0;0;0;0;0;0;0;0;0;0;0;0;1;0;0;0;0;0;0;0;0;-49.203097;-25.531343;2000.0
475;Fiat Punto Essence 1.6 16V (Flex) 2013;Flex; 37.900,00;2013;144.601;Branco;0;Campinas;1;1;1;1;0;0;1;1;1;1;0;1;1;0;0;0;0;1;0;0;0;1;-47.06595;-22.905346;1600.0
476;Chevrolet Vectra GT 2.0 8V (Flex) (Aut) 2010;Flex; 34.900,00;2009;200.000;Vermelho;1;Sumaré;0;0;0;1;0;1;1;0;0;1;0;1;0;1;1;0;0;0;0;0;0;1;-47.272823;-22.820416;2000.0
477;Fiat Uno Vivace 1.0 8V (Flex) 4p 2013;Flex; 33.803,00;2012;93.000;Vermelho;0;Florianópolis;1;1;0;1;0;0;0;0;0;0;0;0;0;0;0;0;0;0;0;0;0;0;-48.547696;-27.594486;1000.0
478;Peugeot 207 Hatch XR 1.4 8V (flex) 2p 2013;Flex; 22.990,00;2012;89.000;Prata;0;Mossoró;0;0;0;1;0;1;1;1;0;1;0;1;0;0;0;0;0;0;0;0;0;1;-37.347446;-5.183737;1400.0
479;Renault Megane Grand Tour Mégane Grand Tour Dynamique 1.6 16V (flex) 2011;Flex; 32.900,00;2011;89.524;Prata;0;São Paulo;1;1;1;1;0;1;1;1;1;1;0;1;1;0;1;0;0;1;0;0;0;1;-46.63952;-23.532905;1600.0
480;Volkswagen Polo Sedan 1.6 8V (Flex) 2011;Flex; 35.900,00;2010;142.000;Prata;0;Osasco;0;0;0;1;0;1;1;0;0;1;0;0;0;0;1;0;0;0;0;0;0;0;-46.791555;-23.53239;1600.0
481;Volkswagen Gol 1.0 TEC (Flex) 4p 2014;Flex; 36.900,00;2013;131.088;Preto;0;Natal;1;1;1;1;0;0;1;0;0;1;0;0;1;0;0;0;0;0;0;0;0;0;-35.198604;-5.793567;1000.0
482;Volkswagen Fox 1.6 VHT (Flex) 2012;Flex; 38.890,00;2011;110.763;Cinza;0;Sorocaba;0;0;0;0;0;0;1;0;1;1;0;1;1;0;1;0;0;0;0;0;0;1;-47.445073;-23.496886;1600.0
483;Ford Fiesta Hatch 1.6 (Flex) 2012;Flex; 32.900,00;2012;112.000;Preto;0;Votuporanga;0;0;0;0;0;0;0;0;0;1;0;0;1;0;0;0;0;0;0;0;0;0;-49.978112;-20.423659;1600.0
484;Nissan March 1.6 16V S (Flex) 2014;Flex; 36.900,00;2013;170.000;Prata;0;São Paulo;1;1;1;1;0;1;0;0;0;1;0;1;0;0;0;0;0;1;0;0;0;1;-46.63952;-23.532905;1600.0
485;Renault Sandero Expression 1.6 8V (flex) 2014;Flex; 35.900,00;2014;100;Prata;0;Goiânia;1;1;1;1;0;1;1;0;0;1;0;1;1;0;0;0;0;0;0;0;0;1;-49.264346;-16.686439;1600.0
486;Volkswagen Fox 1.0 8V (Flex) 4p 2011;Flex; 29.900,00;2010;89.371;Preto;0;Porto Velho;0;0;0;1;0;0;1;0;0;0;0;1;0;0;0;0;0;0;0;0;0;0;-63.899902;-8.760772;1000.0
487;Volkswagen Fox 1.0 8V (Flex) 4p 2011;Flex; 29.900,00;2010;107.000;Preto;0;Curitiba;0;0;0;0;0;0;0;0;0;0;0;0;1;0;0;0;0;0;0;0;0;1;-49.264622;-25.419547;1000.0
488;Fiat Siena EL 1.4 8V (Flex) 2014;Flex; 36.590,00;2013;163.456;Vermelho;0;Santa Inês;1;1;1;1;0;0;0;0;0;0;0;1;0;0;0;0;0;0;0;0;0;0;-51.902385;-22.637595;1400.0
489;Citroën C3 GLX 1.4 8V (flex) 2012;Flex; 27.500,00;2011;90.500;Prata;0;Uberlândia;1;0;0;1;1;1;1;1;0;1;0;1;1;0;0;0;0;1;0;0;0;1;-48.274934;-18.914142;1400.0
490;Volkswagen Polo Hatch 1.6 VHT Total Flex 2011;Flex; 35.890,00;2010;137.556;Preto;0;Osasco;0;0;0;1;0;0;1;0;0;1;0;1;1;0;1;0;0;1;0;0;0;1;-46.791555;-23.53239;1600.0
491;Peugeot 208 Active Pack 1.5 8V (Flex) 2015;MultiFlex (Alc; 38.900,00;2014;78.000;Prata;0;Araruama;1;1;1;1;1;1;1;0;1;1;0;1;1;0;1;0;0;0;0;1;0;0;-42.332625;-22.869651;1500.0
492;Ford Fiesta Hatch 1.0 (Flex) 2012;Flex; 28.900,00;2011;120.000;Branco;0;Sumaré;0;0;0;0;0;0;1;0;0;0;0;0;1;0;0;0;0;0;0;0;0;0;-47.272823;-22.820416;1000.0
493;Chevrolet Celta LS 1.0 (Flex) 4p 2012;Flex; 25.900,00;2012;116.980;Prata;0;Curitiba;0;0;0;0;0;0;0;0;0;0;0;0;0;0;0;0;0;0;0;0;0;0;-49.264622;-25.419547;1000.0
494;Chevrolet Classic LS VHC E 1.0 (Flex) 2011;Flex; 26.800,00;2011;132.210;Branco;0;Campo Grande;0;0;0;0;0;0;0;0;0;0;0;1;0;0;0;0;0;0;0;0;0;0;-54.629463;-20.448589;1000.0
495;Volkswagen Fox 1.0 VHT (Flex) 4p 2012;Flex; 35.990,00;2011;134.311;Cinza;0;Biritiba-Mirim;0;0;0;0;0;0;0;0;0;0;0;1;0;0;1;0;0;1;0;0;0;1;-46.0407;-23.569774;1000.0
496;Renault Clio Expression 1.0 16V (Flex) 2015;Flex; 33.900,00;2015;74.125;Branco;0;Rio de Janeiro;1;1;1;1;0;0;1;1;1;1;0;1;0;0;0;0;0;0;0;0;0;1;-43.200295;-22.912897;1000.0
497;Audi A3 Sedan 1.4 Prestige Tiptronic 2020;Flex; 152.800,00;2020;24.990;Preto;1;Mogi das Cruzes;1;1;1;1;1;1;1;0;1;1;0;1;1;1;1;0;0;1;1;1;1;0;-46.18541;-23.52082;1400.0
498;Citroën C3 GLX 1.4 8V (flex) 2008;Flex; 24.990,00;2007;120.000;Preto;0;Campinas;0;0;0;1;1;0;0;0;0;1;0;0;1;0;0;0;0;0;0;0;0;0;-47.06595;-22.905346;1400.0
499;Volkswagen Gol 1.0 TEC City (Flex) 4p 2015;Flex; 38.900,00;2014;65.000;Prata;0;Conselheiro Lafaiete;1;1;1;0;0;0;1;0;0;0;0;0;1;0;0;0;0;0;0;0;0;0;-43.784609;-20.663445;1000.0
500;Ford Fiesta Hatch Rocam 1.6 (Flex) 2013;Flex; 33.700,00;2013;90.000;Preto;0;Curitiba;1;1;1;1;0;0;0;0;0;0;0;1;0;0;0;0;0;0;0;0;0;1;-49.264622;-25.419547;1600.0
501;Volkswagen Polo Sedan Comfortline 1.6 8V I-Motion (Flex) (Aut) 2011;Flex; 36.900,00;2011;113.000;Prata;1;Salgueiro;0;0;0;1;0;1;1;0;0;1;0;1;0;1;1;0;0;1;0;0;0;0;-39.12469;-8.073734;1600.0
502;Fiat Palio Attractive 1.4 8V (Flex) 2013;Flex; 35.890,00;2013;75.856;Preto;0;Santo André;1;1;1;1;0;1;1;0;0;1;0;1;0;0;0;0;0;0;0;0;0;1;-36.621339;-7.220157;1400.0
503;Volkswagen Fox 1.0 TEC (Flex) 4p 2014;Flex; 37.990,00;2013;86.000;Branco;0;Amparo;1;0;0;1;0;0;1;0;0;1;0;1;0;0;0;0;0;0;0;0;0;1;-37.062838;-7.555022;1000.0
504;Volkswagen SpaceFox 1.6 8V (Flex) 2012;Flex; 37.990,00;2011;108.000;Preto;0;Curitiba;0;0;0;1;0;0;1;0;0;1;0;1;1;0;1;0;0;0;0;1;0;1;-49.264622;-25.419547;1600.0
505;Chevrolet Celta Spirit 1.0 VHCE (Flex) 4p 2011;Flex; 27.900,00;2010;132.714;Prata;0;Santo André;0;0;0;0;0;0;1;0;0;1;0;1;1;0;0;0;0;0;0;0;0;1;-46.543154;-23.67373;1000.0
506;Volkswagen Up! 1.0 12v E-Flex take up! 4p 2016;Flex; 38.900,00;2016;63.065;Vermelho;0;Goiânia;1;1;1;1;1;1;0;0;0;0;0;1;0;0;0;0;0;0;0;0;0;0;-49.264346;-16.686439;1000.0
507;Peugeot Hoggar Escapade 1.6 16V (flex) 2011;Flex; 27.900,00;2010;173.885;Branco;0;Recife;0;0;0;1;0;1;1;1;0;1;0;0;0;0;1;0;0;1;0;0;1;0;-34.877065;-8.046658;1600.0
508;Chevrolet Onix Plus 1.0 LT 2022;Flex; 79.180,00;2021;18.222;Preto;0;Maceió;1;1;1;1;1;1;1;0;1;1;0;1;1;0;1;0;1;1;0;1;0;1;-35.73496;-9.665985;1000.0
509;Ford Fiesta Hatch Rocam 1.6 (Flex) 2013;Flex; 34.990,00;2012;149.800;Prata;0;Araraquara;1;0;0;1;0;0;1;0;0;1;0;0;1;0;0;0;0;0;0;0;0;0;-48.178014;-21.784511;1600.0
510;Chevrolet Classic LS VHC E 1.0 (Flex) 2011;Flex; 24.900,00;2010;140.000;Prata;1;Ribeirão Preto;0;0;0;1;0;0;0;0;0;0;0;0;0;1;0;0;0;0;0;0;0;0;-47.809875;-21.169923;1000.0
511;Volkswagen Gol 1.0 TEC (Flex) 4p 2014;Flex; 38.890,00;2013;155.141;Preto;0;Barueri;0;0;0;1;0;0;1;0;1;1;0;0;0;0;1;0;0;0;0;0;0;1;-46.879042;-23.505689;1000.0
512;Citroën C3 Tendance 1.5 8V (Flex) 2013;Flex; 35.990,00;2012;115.300;Branco;0;Rio Verde;1;1;0;1;0;1;1;0;0;0;0;1;0;0;0;0;0;0;0;0;0;0;-50.919195;-17.792266;1500.0
513;Fiat Palio Attractive 1.4 8V (Flex) 2013;Flex; 38.890,00;2013;119.000;Prata;0;São Paulo;1;1;1;1;0;1;1;0;0;0;0;1;1;0;1;0;1;0;0;0;0;1;-46.63952;-23.532905;1400.0
514;Chevrolet Montana Sport 1.8 (Flex) 2005;Flex; 33.890,00;2004;160.000;Vermelho;0;Osasco;0;0;0;1;0;0;1;0;1;1;0;0;1;0;0;0;0;0;0;0;0;0;-46.791555;-23.53239;1800.0
515;Volkswagen Gol 1.6 (Flex) 2013;Flex; 38.900,00;2012;69.000;Vermelho;0;Belém;0;0;0;1;0;0;1;0;1;1;0;1;1;0;1;0;0;1;0;0;0;1;-35.51658;-6.742614;1600.0
516;Citroën C3 Picasso Tendance 1.6 16V (Flex) (Aut) 2015;Flex; 38.900,00;2015;86.000;Prata;1;Rio de Janeiro;1;1;1;1;1;1;1;1;0;1;0;1;1;1;0;0;0;1;0;0;1;1;-43.200295;-22.912897;1600.0
517;Fiat Punto Attractive 1.4 (Flex) 2014;Flex; 38.890,00;2013;167.713;Branco;0;São Paulo;1;1;1;1;0;0;0;0;0;1;0;1;0;0;0;0;0;0;0;0;0;1;-46.63952;-23.532905;1400.0
518;Volkswagen Voyage 1.0 Total Flex 2013;Flex; 36.990,00;2012;89.400;Prata;0;Barretos;0;0;0;1;0;0;1;0;1;1;0;1;1;0;0;0;0;1;0;0;0;0;-48.569832;-20.553146;1000.0
519;Fiat Palio Attractive 1.4 8V (Flex) 2014;Flex; 38.900,00;2014;119.000;Preto;0;Fortaleza;1;1;1;1;0;1;1;0;1;1;0;1;1;0;0;0;0;0;0;0;0;1;-38.542298;-3.716638;1400.0
520;Citroën C4 GLX 2.0 (aut) (flex) 2010;Flex; 31.900,00;2009;142.095;Prata;1;Parobé;1;1;1;1;0;1;1;1;0;1;0;1;0;1;1;0;0;1;1;0;0;1;-50.83118;-29.624257;2000.0
521;Renault Sandero Stepway 1.6 16V (Flex) 2012;Flex; 37.900,00;2011;120.000;Cinza;0;Rio Bonito;0;0;0;1;0;1;1;0;0;1;0;1;0;0;0;0;0;0;0;0;0;1;-42.627574;-22.71811;1600.0
522;Renault Clio Expression 1.0 16V (Flex) 2016;Flex; 34.980,00;2015;116.000;Vermelho;0;São Paulo;1;1;1;1;0;0;0;0;0;1;0;1;0;0;0;0;0;0;0;0;0;1;-46.63952;-23.532905;1000.0
523;Citroën C3 GLX 1.4 8V (flex) 2012;Flex; 29.000,00;2011;159.325;Prata;0;Limeira;0;0;0;1;0;1;1;0;0;1;0;1;0;0;0;0;0;1;0;0;0;1;-47.396987;-22.56605;1400.0
524;Citroën C3 Tendance 1.5 8V (Flex) 2014;MultiFlex (Alc; 35.900,00;2013;48.875;Branco;0;Rio de Janeiro;1;1;1;1;0;1;1;1;1;1;0;0;1;0;1;0;0;0;0;0;0;1;-43.200295;-22.912897;1500.0
525;Chevrolet Celta LT 1.0 (Flex) 2015;Flex; 34.999,00;2014;81.000;Branco;0;Cabo Frio;1;1;1;1;0;0;1;0;0;0;0;0;0;0;0;0;0;0;0;0;0;0;-42.028595;-22.88943;1000.0
526;Volkswagen Gol 1.0 8V (G4)(Flex)2p 2014;Flex; 28.900,00;2013;141.915;Vermelho;0;Campinas;0;0;0;0;0;0;0;0;0;0;0;0;0;0;0;0;0;0;0;0;0;0;-47.06595;-22.905346;1000.0
527;Renault Logan Authentique 1.0 16V (flex) 2015;MultiFlex (Alc; 35.900,00;2014;99.999;Branco;0;Rio de Janeiro;1;0;1;1;0;0;1;0;0;1;0;0;1;0;0;0;0;0;0;1;0;0;-43.200295;-22.912897;1000.0
528;Chevrolet Classic LS VHC E 1.0 (Flex) 2012;Flex; 28.900,00;2011;140.000;Cinza;0;Joinville;0;0;0;1;0;0;0;0;0;1;0;0;0;0;0;0;0;0;0;0;0;0;-48.848675;-26.304497;1000.0
529;Volkswagen Fox 1.0 8V (Flex) 4p 2011;Flex; 29.800,00;2010;143.193;Vermelho;0;Curitiba;0;0;0;0;0;0;1;0;0;1;0;1;0;0;1;0;0;1;0;0;0;1;-49.264622;-25.419547;1000.0
530;Chevrolet Vectra GT 2.0 8V (Flex) 2009;Flex; 32.990,00;2008;214.000;Cinza;0;Brasília;1;0;0;1;0;0;1;1;0;1;0;0;1;0;0;0;0;0;0;0;0;0;-47.929657;-15.779522;2000.0
531;Chevrolet Agile LTZ 1.4 8V (Flex) 2011;Flex; 32.900,00;2011;170.000;Preto;0;Bauru;0;0;0;1;0;1;1;1;1;1;0;1;1;0;1;0;0;1;1;0;0;1;-49.087142;-22.324569;1400.0
532;Toyota Etios Hatch Etios XLS 1.5 (Flex) 2013;Flex; 37.900,00;2013;160.456;Prata;0;São Paulo;0;1;0;1;0;1;1;0;1;1;0;1;1;0;1;0;0;0;0;1;0;1;-46.63952;-23.532905;1500.0
533;Fiat Palio ELX 1.4 (Flex) 2010;Flex; 29.900,00;2009;148.000;Prata;0;Curitiba;0;0;0;0;0;1;0;0;0;0;0;1;0;0;0;0;0;0;0;0;0;1;-49.264622;-25.419547;1400.0
534;Fiat Weekend Trekking 1.6 E.torQ (Flex) 2016;Flex; 37.900,00;2015;185.000;Prata;0;Joinville;1;1;1;1;0;1;1;1;0;1;0;1;1;0;1;0;0;0;0;1;0;1;-48.848675;-26.304497;1600.0
535;Volkswagen SpaceFox 1.6 8V (Flex) 2009;Flex; 28.900,00;2008;166.000;Prata;0;São José dos Campos;0;0;0;1;0;0;0;0;0;0;0;0;0;0;0;0;0;0;0;0;0;0;-45.884115;-23.189554;1600.0
536;Fiat Palio Fire 1.0 8V (Flex) 4p 2014;Flex; 29.990,00;2013;157.438;Prata;0;Porto Alegre;0;0;0;1;0;0;1;1;0;1;0;1;0;0;0;0;0;0;0;0;0;1;-51.206533;-30.031771;1000.0
537;Fiat Uno Way 1.4 8V (Flex) 2p 2011;Flex; 32.000,00;2010;135.000;Prata;0;Rolim de Moura;0;0;0;0;0;1;0;0;0;0;0;1;0;0;0;0;0;0;0;0;0;1;-61.771411;-11.727071;1400.0
538;Volkswagen SpaceFox 1.6 8V (Flex) 2008;Flex; 28.900,00;2008;196.000;Prata;0;São Paulo;0;0;0;1;0;1;1;0;0;1;0;1;0;0;1;0;0;1;0;0;1;1;-46.63952;-23.532905;1600.0
539;Citroën C3 Exclusive 1.6 16V (Flex)(aut) 2012;Flex; 36.900,00;2011;85.500;Branco;1;São Bonifácio;0;0;0;0;0;0;0;0;0;0;0;0;0;1;0;0;0;0;0;0;0;0;-48.932608;-27.900907;1600.0
540;Fiat Idea ELX 1.8 (Flex) 2010;Flex; 29.990,00;2010;134.650;Prata;0;Curitiba;0;0;0;1;0;0;1;0;1;1;0;0;1;0;0;0;0;0;0;1;0;0;-49.264622;-25.419547;1800.0
541;Chevrolet Vectra GT -X 2.0 8V (Flex) (Aut) 2010;Flex; 35.900,00;2009;144.000;Preto;1;Mogi das Cruzes;1;1;1;1;0;1;1;1;0;1;0;1;1;1;1;0;0;1;1;0;1;1;-46.18541;-23.52082;2000.0
542;Volkswagen Gol 1.0 8V (G4)(Flex)4p 2013;Flex; 32.900,00;2012;89.000;Preto;0;Rio Negrinho;0;0;0;0;0;0;1;0;0;0;0;1;0;0;0;0;0;0;0;0;0;1;-49.517746;-26.259075;1000.0
543;Chevrolet Zafira Expression 2.0 (Flex) (Aut) 2011;Flex; 37.900,00;2010;123.456;Prata;1;Ribeirão Preto;1;1;0;1;0;0;1;1;0;1;0;1;1;1;0;0;0;0;0;0;0;1;-47.809875;-21.169923;2000.0
544;Citroën C3 Picasso GLX 1.6 16V (Flex) 2012;Flex; 34.000,00;2011;151.668;Prata;0;Limeira;0;0;0;1;0;1;1;1;1;1;0;0;0;0;0;0;0;1;0;0;0;1;-47.396987;-22.56605;1600.0
545;Volkswagen SpaceFox 1.6 8V (Flex) 2009;Flex; 29.900,00;2008;124.000;Prata;0;Porto Alegre;0;0;0;0;0;0;0;0;0;0;0;0;0;0;0;0;0;0;0;0;0;0;-51.206533;-30.031771;1600.0
546;Volkswagen Up! 1.0 12v E-Flex move up! 4p 2015;Flex; 38.990,00;2014;90.261;Branco;0;Cuiabá;1;1;1;1;0;1;0;0;0;1;0;1;1;0;1;0;0;1;0;0;0;1;-56.097397;-15.600979;1000.0
547;Fiat Uno Way 1.0 8V (Flex) 4p 2014;Flex; 34.990,00;2014;80.000;Branco;0;Recife;1;1;1;1;0;0;1;0;0;1;0;0;1;0;0;0;0;0;0;0;0;1;-34.877065;-8.046658;1000.0
548;Chevrolet Classic LS 1.0 VHCE (Flex) 2016;Flex; 38.900,00;2015;41.000;Prata;0;Parnamirim;1;1;1;1;0;0;1;0;0;1;0;1;0;0;0;0;0;0;0;0;0;0;-39.579547;-8.087292;1000.0
549;Ford Ka Hatch SE 1.0 (Flex) 2015;Flex; 37.900,00;2014;108.000;Prata;0;São Paulo;1;1;1;1;1;1;1;0;1;1;0;1;1;0;0;0;0;0;0;0;0;1;-46.63952;-23.532905;1000.0
550;Fiat Palio Fire 1.0 8V (Flex) 4p 2010;Flex; 26.990,00;2009;116.000;Prata;0;São Paulo;0;0;0;0;0;0;0;0;0;0;0;0;0;0;0;0;0;0;0;0;0;0;-46.63952;-23.532905;1000.0
551;Chevrolet Agile LTZ 1.4 8V (Flex) 2012;Flex; 34.990,00;2011;174.400;Vermelho;0;São Paulo;1;1;1;1;0;1;1;1;1;1;0;1;1;0;0;0;0;1;1;0;0;1;-46.63952;-23.532905;1400.0
552;Fiat Palio Attractive 1.4 8V (Flex) 2013;Flex; 38.900,00;2012;139.729;Branco;0;Mirassol;1;1;1;1;0;0;1;0;0;1;0;1;1;0;1;0;0;1;0;0;0;0;-49.52061;-20.816874;1400.0
553;Chevrolet Montana LS 1.4 (Flex) 2012;Flex; 38.900,00;2011;123.456;Cinza;0;São Carlos;0;1;0;0;1;0;0;0;0;0;0;0;0;0;0;0;0;0;0;0;0;0;-53.003704;-27.079757;1400.0
554;Fiat Grand Siena Attractive 1.4 8V (Flex) 2013;Flex; 34.900,00;2013;124.000;Preto;0;Manaus;1;1;1;0;0;1;0;0;0;1;0;1;0;0;0;0;0;0;0;0;0;0;-60.02123;-3.118662;1400.0
555;Volkswagen Gol 1.0 (G5) (Flex) 2013;Flex; 32.900,00;2012;153.379;Branco;0;Goiânia;0;0;0;1;0;0;1;0;0;1;0;1;1;0;0;0;0;1;0;0;0;1;-49.264346;-16.686439;1000.0
556;Volkswagen Gol 1.0 (G5) (Flex) 2011;Flex; 28.900,00;2010;130.000;Vermelho;0;Palmas;0;0;0;1;0;0;1;0;0;1;0;0;0;0;0;0;0;0;0;1;0;1;-51.988812;-26.483868;1000.0
557;Renault Sandero Expression 1.0 16V (flex) 2012;Flex; 28.990,00;2011;140.000;Prata;0;Valinhos;0;0;0;1;0;0;1;0;0;1;0;1;1;0;0;0;0;0;0;0;0;1;-46.997367;-22.969805;1000.0
558;Nissan Livina SL 1.8 16V aut. (flex) 2010;Flex; 34.900,00;2009;185.000;Verde;1;Jundiaí;1;1;1;1;0;1;1;1;0;1;0;1;1;1;1;0;0;1;0;0;0;1;-46.897358;-23.185218;1800.0
559;Fiat Palio Fire 1.0 8V (Flex) 4p 2012;Flex; 27.500,00;2011;108.000;Prata;0;São Paulo;0;0;0;0;0;0;1;0;0;1;0;0;1;0;0;0;0;0;0;0;0;1;-46.63952;-23.532905;1000.0
560;Fiat Palio Fire Way 1.0 8V (Flex) 2015;Flex; 34.900,00;2014;111.000;Cinza;0;Curitiba;1;1;1;1;0;1;1;0;0;1;0;1;1;0;0;0;0;0;0;0;0;1;-49.264622;-25.419547;1000.0
561;Chevrolet Classic LS VHC E 1.0 (Flex) 2013;Flex; 29.500,00;2012;90.000;Prata;0;José Bonifácio;0;0;0;0;0;0;1;1;1;1;0;1;1;0;1;0;0;0;0;0;0;0;-49.689233;-21.055062;1000.0
562;Ford Fiesta Hatch S Rocam 1.0 (Flex) 2014;Flex; 32.777,00;2014;109.074;Preto;0;Campinas;0;1;0;1;0;0;1;0;0;1;0;1;1;0;0;0;0;0;0;0;0;1;-47.06595;-22.905346;1000.0
563;Ford EcoSport Ecosport XLT 2.0 16V (Flex) 2008;Gasolina; 35.000,00;2007;140.000;Prata;1;Ibitinga;1;1;1;1;0;1;1;0;0;1;0;1;1;1;1;0;0;1;0;0;0;1;-48.831903;-21.75623;2000.0
564;Ford Fiesta Hatch Rocam 1.6 (Flex) 2013;Flex; 32.900,00;2012;118.000;Branco;0;Sapucaia do Sul;0;0;0;1;0;0;1;0;0;1;0;1;1;0;0;0;0;0;0;0;0;1;-51.144975;-29.827575;1600.0
565;Renault Sandero Expression 1.0 16V (flex) 2014;Gasolina; 33.900,00;2013;79.000;Branco;0;Canoas;1;1;0;1;0;0;1;0;0;1;0;1;0;0;0;0;0;0;0;0;0;1;-51.185681;-29.912758;1000.0
566;Citroën C4 Pallas Exclusive 2.0 16V (flex) (aut) 2011;Flex; 33.900,00;2011;135.000;Preto;1;São José dos Campos;1;1;1;1;0;1;1;1;0;1;0;1;0;1;0;0;0;1;1;0;1;0;-45.884115;-23.189554;2000.0
567;Volkswagen CrossFox 1.6 (Flex) 2009;Flex; 29.990,00;2008;185.279;Preto;0;Goiânia;0;0;0;1;0;0;1;0;0;1;0;1;1;0;0;0;0;0;0;0;0;1;-49.264346;-16.686439;1600.0
568;Fiat Uno Way 1.0 8V (Flex) 4p 2013;Flex; 32.900,00;2012;150.000;Vermelho;0;Itaguaí;1;1;1;1;0;0;1;0;0;1;0;1;0;0;0;0;0;0;0;0;0;1;-43.779821;-22.863566;1000.0
569;Chevrolet Classic LS VHC E 1.0 (Flex) 2011;Flex; 26.800,00;2011;132.210;Branco;0;Campo Grande;0;0;0;0;0;0;0;0;0;0;0;1;0;0;0;0;0;0;0;0;0;0;-37.310572;-5.8536;1000.0
570;Chevrolet Agile LTZ 1.4 8V (Flex) 2010;Flex; 31.900,00;2010;128.000;Preto;0;Mogi Mirim;0;0;0;1;0;0;1;0;0;1;0;0;1;0;0;0;0;0;0;0;0;0;-46.950514;-22.431878;1400.0
571;Citroën C3 GLX 1.4 8V (flex) 2011;Flex; 25.900,00;2011;166.294;Prata;0;Brasília;0;0;0;1;0;0;1;0;0;1;0;1;0;0;0;0;0;0;0;0;0;1;-47.929657;-15.779522;1400.0
572;Ford Fiesta Hatch Rocam 1.6 (Flex) 2013;Flex; 31.990,00;2012;142.838;Preto;0;Campinas;1;0;0;1;0;0;1;0;0;1;0;0;1;0;0;0;0;1;0;0;0;0;-47.06595;-22.905346;1600.0
573;Chevrolet Agile LTZ 1.4 8V (Flex) 2013;Flex; 34.900,00;2012;121.400;Branco;0;São Paulo;1;1;1;1;0;0;1;0;0;1;0;1;1;0;0;0;0;1;0;0;0;1;-46.63952;-23.532905;1400.0
574;Volkswagen Up! 1.0 12v E-Flex take up! 2p 2015;Flex; 38.900,00;2014;97.000;Branco;0;Cuiabá;1;1;1;0;0;0;0;0;0;0;0;1;0;0;0;0;0;0;0;0;0;1;-56.097397;-15.600979;1000.0
575;Chevrolet Celta LT 1.0 (Flex) 2014;Flex; 33.900,00;2014;132.000;Branco;0;Colombo;1;0;1;1;0;0;1;0;0;1;0;0;1;0;0;0;0;0;0;0;0;1;-49.22616;-25.292487;1000.0
576;Ford Fiesta Sedan 1.6 Rocam (Flex) 2013;Flex; 29.900,00;2012;100.000;Branco;0;Anápolis;0;0;0;1;0;0;1;0;0;1;0;1;1;0;0;0;0;0;0;0;0;0;-48.952958;-16.328095;1600.0
577;Renault Sandero Expression 1.0 16V (flex) 2011;Flex; 28.900,00;2011;150.000;Preto;0;Jundiaí;0;0;0;0;0;0;0;0;0;0;0;0;0;0;0;0;0;0;0;0;0;0;-46.897358;-23.185218;1000.0
578;Volkswagen Up! 1.0 12v E-Flex move up! 2p 2015;Flex; 35.900,00;2014;111.111;Branco;0;Uberlândia;1;1;1;1;0;0;0;0;0;0;0;1;0;0;0;0;0;0;0;0;0;1;-48.274934;-18.914142;1000.0
579;Renault Clio Hatch. Campus 1.0 16V (flex) 2p 2011;Flex; 21.900,00;2010;118.615;Preto;0;Jundiaí;0;0;0;0;0;0;1;0;0;1;0;1;0;0;0;0;0;0;0;0;0;1;-46.897358;-23.185218;1000.0
580;Renault Clio Expression 1.0 16V (Flex) 2016;Flex; 33.900,00;2015;113.316;Prata;0;Campo Grande;1;1;1;1;0;0;0;0;0;1;0;1;0;0;0;0;0;0;0;0;0;1;-54.629463;-20.448589;1000.0
581;Chevrolet Classic LS VHC E 1.0 (Flex) 2012;Flex; 28.500,00;2012;112.000;Cinza;0;Campo Grande;0;0;0;0;0;0;0;0;0;0;0;1;0;0;0;0;0;0;0;0;0;0;-54.629463;-20.448589;1000.0
582;Ford EcoSport Ecosport XLT 2.0 16V (Flex) 2009;Flex; 37.900,00;2009;104.000;Prata;0;São Paulo;0;0;0;1;0;1;1;1;1;1;0;1;1;0;1;0;0;1;0;0;0;1;-46.63952;-23.532905;2000.0
583;Chevrolet Astra Sedan Advantage 2.0 (Flex) 2011;Flex; 34.900,00;2011;200.881;Preto;0;São José dos Campos;0;0;0;1;0;0;1;0;0;1;0;0;1;0;0;0;0;0;0;0;0;0;-45.884115;-23.189554;2000.0
584;Chevrolet Vectra GT 2.0 8V (Flex) 2009;Flex; 32.900,00;2008;176.200;Preto;0;Volta Redonda;0;0;0;1;0;0;1;0;0;0;0;0;0;0;0;0;0;0;0;0;0;0;-44.099555;-22.520212;2000.0
585;Fiat Palio Attractive 1.4 8V (Flex) 2011;Flex; 33.900,00;2010;101.000;Prata;0;Osasco;1;1;0;1;0;1;1;0;0;0;0;1;1;0;0;0;0;1;0;0;0;1;-46.791555;-23.53239;1400.0
586;Volkswagen Fox 1.0 8V (Flex) 4p 2010;Flex; 27.899,00;2009;108.812;Vermelho;0;Osasco;0;0;0;0;0;0;0;0;0;0;0;1;0;0;1;0;0;0;0;0;0;1;-46.791555;-23.53239;1000.0
587;Hyundai HB20 1.0 Vision (BlueAudio) 2022;Flex; 64.900,00;2021;45.675;Preto;0;Lauro de Freitas;0;1;1;1;1;1;1;0;1;1;0;1;1;0;0;0;0;0;0;0;0;1;-38.321008;-12.8978;1000.0
588;Volkswagen Fox 1.0 VHT (Flex) 2p 2013;Flex; 33.900,00;2012;94.000;Preto;0;São Paulo;0;0;0;1;0;0;1;0;0;0;0;1;0;0;0;0;0;1;0;0;0;1;-46.63952;-23.532905;1000.0
589;Toyota Corolla Sedan XLi 1.6 16V (aut) 2007;Gasolina; 33.900,00;2007;170.000;Prata;1;Ribeirão Preto;0;0;0;1;0;0;0;0;0;1;0;0;0;1;0;0;0;0;0;0;0;0;-47.809875;-21.169923;1600.0
590;Peugeot 408 Allure 2.0 16V (aut) (Flex) 2012;Flex; 34.990,00;2011;142.000;Prata;1;Campinas;0;1;1;1;0;0;1;0;0;1;0;0;0;1;0;0;0;1;0;0;0;0;-47.06595;-22.905346;2000.0
591;Volkswagen SpaceFox Comfortline 1.6 8V (Flex) 2008;Flex; 32.900,00;2007;182.000;Bege;0;Carapicuíba;0;0;0;0;0;0;1;0;0;0;0;1;1;0;0;0;0;0;0;0;0;0;-46.840676;-23.523471;1600.0
592;Nissan March 1.6 16V SV (Flex) 2013;Flex; 38.900,00;2012;43.990;Prata;0;Votuporanga;1;0;1;1;0;1;1;1;0;1;0;1;1;0;0;0;0;1;0;0;0;1;-49.978112;-20.423659;1600.0
593;Chevrolet Corsa Hatch Maxx 1.4 (Flex) 2011;Flex; 29.900,00;2011;11.111;Prata;0;Várzea Grande;0;0;0;1;0;0;1;0;0;0;0;0;0;0;0;0;0;0;0;0;0;0;-42.247973;-6.548993;1400.0
594;Renault Sandero Expression 1.6 8V (flex) 2014;Flex; 33.700,00;2013;145.800;Prata;0;São Paulo;1;0;1;1;0;1;1;1;1;1;0;1;1;0;0;0;0;0;0;1;0;1;-46.63952;-23.532905;1600.0
595;Hyundai Azera 3.3 V6 2009;Flex; 36.900,00;2008;168.000;Preto;0;São Paulo;1;0;0;1;0;0;1;0;1;1;0;0;0;0;1;0;0;0;0;0;1;0;-46.63952;-23.532905;3300.0
596;Citroën Aircross GLX 1.6 16V (Flex) (aut) 2012;Flex; 37.990,00;2012;91.000;Preto;1;Santo André;0;0;0;1;0;1;1;1;0;1;0;1;0;1;0;0;0;1;0;0;0;1;-46.543154;-23.67373;1600.0
597;Fiat Punto Essence 1.6 16V Dualogic (Flex) 2012;Flex; 32.900,00;2011;140.590;Branco;1;Arapongas;0;0;0;1;0;0;1;0;0;0;0;0;0;1;0;0;0;0;0;0;0;0;-51.42592;-23.415296;1600.0
598;Citroën C3 Origine 1.5 8V (Flex) 2013;Flex; 36.990,00;2013;154.000;Preto;0;Campinas;1;1;0;1;0;0;1;0;0;1;0;1;1;0;0;0;0;1;0;0;0;1;-47.06595;-22.905346;1500.0
599;Volkswagen Kombi Lotação 1.4 (Flex) 2009;Flex; 33.900,00;2009;193.355;Branco;0;Rio Claro;0;0;0;0;0;0;0;0;0;0;0;0;0;0;0;0;0;0;0;0;0;0;-47.554632;-22.398378;1400.0
600;Volkswagen Saveiro 1.6 (Flex) 2010;Flex; 35.900,00;2009;157.749;Prata;0;Curitiba;0;0;0;0;0;0;1;0;0;1;0;0;0;0;0;0;0;0;0;0;0;0;-49.264622;-25.419547;1600.0
601;Fiat Uno Vivace 1.0 8V (Flex) 4p 2012;Flex; 32.900,00;2011;166.144;Prata;0;Jundiaí;0;0;0;1;0;0;1;0;0;1;0;0;0;0;0;0;0;0;0;0;0;1;-46.897358;-23.185218;1000.0
602;Fiat Siena EL 1.0 8V (Flex) 2012;Flex; 28.900,00;2012;190.000;Preto;0;São José do Rio Preto;0;0;0;0;0;0;1;0;0;1;0;1;0;0;0;0;0;0;0;0;0;0;-49.375767;-20.811289;1000.0
